{"features": [{"geometry": {"coordinates": [98.598684, 9.742572], "type": "Point"}, "properties": {"id": "82f430248e28fa2bb7d53c875a5fd80f", "image": "upload/001c6b59-051a-4afe-8dd4-064362f1f32b", "name": "พี่หนึ่งขายผัก", "name_en": "NUNG", "category": "ร้านอาหาร", "sub_category": "ร้านขายผลไม้ / ร้านขายผัก"}, "type": "Feature"}, {"geometry": {"coordinates": [98.630304, 9.960587], "type": "Point"}, "properties": {"id": "98d4b33089807fb9e5a81f317a330e6e", "image": "upload/001c6b59-051a-4afe-8dd4-064362f1f32b", "name": "เจ้ตุ๊ก ไก่สด", "name_en": "JETOOK", "category": "ร้านอาหาร", "sub_category": "อื่นๆ"}, "type": "Feature"}, {"geometry": {"coordinates": [98.570803, 9.67828], "type": "Point"}, "properties": {"id": "415cbace45007664fb1817f9c0a71f11", "image": "upload/001c6b59-051a-4afe-8dd4-064362f1f32b", "name": "ร้านจ๊ะบี้", "name_en": "WASSANA", "category": "ซุปเปอร์มาร์เก็ต/ขายของใช้/ขายของชำ/มินิมาร์ท/ตลาดสด", "sub_category": "มินิมาร์ท / ร้านขายของชำ"}, "type": "Feature"}, {"geometry": {"coordinates": [98.63411530852318, 9.964434955267441], "type": "Point"}, "properties": {"id": "1fba0b81847ce98526280e40c65cee20", "image": "upload/f9fa1845-f08d-458e-a3aa-c9e86d8706fa", "name": "ร้านอิสลามโอชา", "name_en": "Muslim Ocha", "category": "ร้านอาหาร", "sub_category": "อาหารทั่วไป อาหารตามสั่ง อาหารจานเดียว"}, "type": "Feature"}, {"geometry": {"coordinates": [98.62626, 9.961718], "type": "Point"}, "properties": {"id": "cb75d21696035f7f0962916083bd4c1c", "image": "upload/f9fa1845-f08d-458e-a3aa-c9e86d8706fa", "name": "ฮาน่า", "name_en": "HANA", "category": "แฟชั่น", "sub_category": "ร้านขายเสื้อผ้า / เครื่องประดับ / สินค้าแฟชั่น"}, "type": "Feature"}, {"geometry": {"coordinates": [98.632863, 9.958538], "type": "Point"}, "properties": {"id": "ce638a777f21a99744f49dd5a42b6e60", "image": "upload/f9fa1845-f08d-458e-a3aa-c9e86d8706fa", "name": "ร้านซาร่าม่า กล้าศึก", "name_en": "", "category": "ร้านค้าธงฟ้า", "sub_category": ""}, "type": "Feature"}, {"geometry": {"coordinates": [98.640884, 10.057089], "type": "Point"}, "properties": {"id": "f28dd2c71605dc364e816c35a77f7a44", "image": "upload/f9fa1845-f08d-458e-a3aa-c9e86d8706fa", "name": "ร้านน้องเราะห์ มินิมาร์ท", "name_en": null, "category": "ร้านค้าท้องถิ่น/ผลิตภัณฑ์ชุมชน/OTOP", "sub_category": ""}, "type": "Feature"}, {"geometry": {"coordinates": [98.632947, 9.960181], "type": "Point"}, "properties": {"id": "c9f048a4f12a5413422be684b75f1170", "image": "upload/f9fa1845-f08d-458e-a3aa-c9e86d8706fa", "name": "เปรี้ยวหวานแซ่บเวอร์", "name_en": "WARAPORN", "category": "ร้านอาหาร", "sub_category": "ร้านขายผลไม้ / ร้านขายผัก"}, "type": "Feature"}, {"geometry": {"coordinates": [98.900908, 10.552237], "type": "Point"}, "properties": {"id": "2f721405580b4eeea59543eb1cd5dda1", "image": "upload/22e7697d-e6ab-4f11-8de9-cc018fc9ff79", "name": "รัชฎาภรณ์ สุวรรโณ", "name_en": "RATCHADAPORN", "category": "ร้านอาหาร", "sub_category": "อาหารทั่วไป อาหารตามสั่ง อาหารจานเดียว"}, "type": "Feature"}, {"geometry": {"coordinates": [98.89925, 10.526392], "type": "Point"}, "properties": {"id": "fa551c80e4958080cb9bc410dedf6519", "image": "upload/22e7697d-e6ab-4f11-8de9-cc018fc9ff79", "name": "ออมเงิน", "name_en": "", "category": "ร้านค้าธงฟ้า", "sub_category": ""}, "type": "Feature"}, {"geometry": {"coordinates": [98.595265, 9.797178], "type": "Point"}, "properties": {"id": "6cdbdb3264b559cd3ddfdb991508c3e3", "image": "upload/22e7697d-e6ab-4f11-8de9-cc018fc9ff79", "name": "วินัยการค้า", "name_en": "WINAI", "category": "ซุปเปอร์มาร์เก็ต/ขายของใช้/ขายของชำ/มินิมาร์ท/ตลาดสด", "sub_category": "มินิมาร์ท / ร้านขายของชำ"}, "type": "Feature"}, {"geometry": {"coordinates": [98.62851619720459, 9.907155499594575], "type": "Point"}, "properties": {"id": "7a8cb3894e12d4db360c4242ce5c233c", "image": "upload/0e5a6b4a-5ca4-483e-99e3-55591308eeee", "name": "ร้านครัวทฤษฎี", "name_en": "krua tissadee", "category": "ร้านอาหาร", "sub_category": "อาหารทั่วไป อาหารตามสั่ง อาหารจานเดียว"}, "type": "Feature"}, {"geometry": {"coordinates": [98.64338636398315, 9.959424840125445], "type": "Point"}, "properties": {"id": "04df904382db242e24954fdb0640be8e", "image": "upload/0e5a6b4a-5ca4-483e-99e3-55591308eeee", "name": "ระนองโอชา ชาบู-ปิ้งย่าง", "name_en": "Ranong o cha chabu grill", "category": "ร้านอาหาร", "sub_category": "ปิ้งย่าง หมูกะทะ"}, "type": "Feature"}, {"geometry": {"coordinates": [98.6388748884201, 9.956690576632433], "type": "Point"}, "properties": {"id": "81b744c03d892fe7ed920e2ffa2afc3e", "image": "upload/73faa275-70fb-47b2-bc2a-9199ec18e771", "name": "ร้านบุญกอง โภชนา", "name_en": "Boonkong", "category": "ร้านอาหาร", "sub_category": "อาหารทั่วไป อาหารตามสั่ง อาหารจานเดียว"}, "type": "Feature"}, {"geometry": {"coordinates": [98.790586, 10.0886], "type": "Point"}, "properties": {"id": "529a52d5d4aa29fff72351f471cbb4c9", "image": "upload/73faa275-70fb-47b2-bc2a-9199ec18e771", "name": "วจิรา", "name_en": "", "category": "ร้านค้าธงฟ้า", "sub_category": ""}, "type": "Feature"}, {"geometry": {"coordinates": [98.798821, 10.401763], "type": "Point"}, "properties": {"id": "591d9ae7de60a7e0f45414400d3132ef", "image": "upload/73faa275-70fb-47b2-bc2a-9199ec18e771", "name": "จอยมาร์ท", "name_en": "", "category": "ร้านค้าธงฟ้า", "sub_category": ""}, "type": "Feature"}, {"geometry": {"coordinates": [98.626495, 9.915562], "type": "Point"}, "properties": {"id": "0efe87b0f3dafad04ab2efdea5c6ae7e", "image": "upload/73faa275-70fb-47b2-bc2a-9199ec18e771", "name": "ป้าตุ่มขายผักและของแห้ง", "name_en": "THANATHORN", "category": "ซุปเปอร์มาร์เก็ต/ขายของใช้/ขายของชำ/มินิมาร์ท/ตลาดสด", "sub_category": "ตลาดสด"}, "type": "Feature"}, {"geometry": {"coordinates": [98.601744, 9.951056], "type": "Point"}, "properties": {"id": "34703e16617f2d25dd26542f809b5fd6", "image": "upload/73faa275-70fb-47b2-bc2a-9199ec18e771", "name": "พี่หญิงขายเสื้อผ้า", "name_en": "YING", "category": "แฟชั่น", "sub_category": "ร้านขายเสื้อผ้า / เครื่องประดับ / สินค้าแฟชั่น"}, "type": "Feature"}, {"geometry": {"coordinates": [98.63271, 9.960182], "type": "Point"}, "properties": {"id": "d84d8c9eaf1b6b3995a8467528aec1aa", "image": "upload/5053df1b-dc23-43bb-b3b4-4251fb93e2b5", "name": "SPORTBRA", "name_en": "SPORTBRA", "category": "แฟชั่น", "sub_category": "ร้านขายเสื้อผ้า / เครื่องประดับ / สินค้าแฟชั่น"}, "type": "Feature"}, {"geometry": {"coordinates": [98.934305, 10.585886], "type": "Point"}, "properties": {"id": "0a9c9b00e0752734b1eb92d138631585", "image": "upload/5053df1b-dc23-43bb-b3b4-4251fb93e2b5", "name": "เสฎฐวุฒิ", "name_en": "", "category": "ร้านค้าธงฟ้า", "sub_category": ""}, "type": "Feature"}, {"geometry": {"coordinates": [98.63326661864808, 9.967353132321476], "type": "Point"}, "properties": {"id": "0cb3d07dd24818d0aa67a61e67e441d8", "image": "upload/6aa6f525-9f62-4662-882f-3250fd46326a", "name": "บาบีคิวสเต็ก", "name_en": "BBQ Steak", "category": "ร้านอาหาร", "sub_category": "อาหารทั่วไป อาหารตามสั่ง อาหารจานเดียว"}, "type": "Feature"}, {"geometry": {"coordinates": [98.642097, 9.964158], "type": "Point"}, "properties": {"id": "2c6efb17516ed457814acc93dd9b76f6", "image": "upload/6aa6f525-9f62-4662-882f-3250fd46326a", "name": "หรอยหลาวครัวอิสลาม", "name_en": "NIPAPORN", "category": "ร้านอาหาร", "sub_category": "อาหารทั่วไป อาหารตามสั่ง อาหารจานเดียว"}, "type": "Feature"}, {"geometry": {"coordinates": [98.63346219062805, 9.969479335647552], "type": "Point"}, "properties": {"id": "542874e5863f3587a9475ca89942bc93", "image": "upload/44ed47ff-63a6-4e99-9af6-25e76baa8d20", "name": "ร้านกระติ๊บ", "name_en": "Kratib", "category": "ร้านอาหาร", "sub_category": "อาหารทั่วไป อาหารตามสั่ง อาหารจานเดียว"}, "type": "Feature"}, {"geometry": {"coordinates": [98.62073, 9.953469], "type": "Point"}, "properties": {"id": "0749a7d5ba4b74fcfd840f4a314fc5f6", "image": "upload/44ed47ff-63a6-4e99-9af6-25e76baa8d20", "name": "บังตี๋ยำฟรี5บาทราดหน้า", "name_en": "BANGTEE", "category": "ร้านอาหาร", "sub_category": "อาหารทั่วไป อาหารตามสั่ง อาหารจานเดียว"}, "type": "Feature"}, {"geometry": {"coordinates": [98.769067, 10.404968], "type": "Point"}, "properties": {"id": "6a2a7a3c2d03e91738871008208375dc", "image": "upload/44ed47ff-63a6-4e99-9af6-25e76baa8d20", "name": "จนินทร์", "name_en": "", "category": "ร้านค้าธงฟ้า", "sub_category": ""}, "type": "Feature"}, {"geometry": {"coordinates": [98.62989217042923, 9.958284906004511], "type": "Point"}, "properties": {"id": "5d1aceba94d3a30d0a137c48266ebfb1", "image": "upload/d83c63cb-c031-4e59-9afb-2283ad59802c", "name": "ร้านบานชื่น", "name_en": "Barnchuen", "category": "ร้านอาหาร", "sub_category": "อาหารทั่วไป อาหารตามสั่ง อาหารจานเดียว"}, "type": "Feature"}, {"geometry": {"coordinates": [98.634263, 9.964204], "type": "Point"}, "properties": {"id": "ec9cbc6795fb80aa651081eb6e1a4b06", "image": "upload/d83c63cb-c031-4e59-9afb-2283ad59802c", "name": "ย๊ะน้ำปั่นเกล็ดหิมะ", "name_en": "YA", "category": "ร้านอาหาร", "sub_category": "ของหวาน ไอศกรีม เบเกอรี่ เครื่องดื่ม"}, "type": "Feature"}, {"geometry": {"coordinates": [98.620539, 9.954604], "type": "Point"}, "properties": {"id": "1733bec477cd3757d67c5048ae28dfe7", "image": "upload/d83c63cb-c031-4e59-9afb-2283ad59802c", "name": "ร้านชาม๊ะใหย่", "name_en": "CHAMAYAI", "category": "ร้านอาหาร", "sub_category": "ของหวาน ไอศกรีม เบเกอรี่ เครื่องดื่ม"}, "type": "Feature"}, {"geometry": {"coordinates": [98.6329362, 9.9585496], "type": "Point"}, "properties": {"id": "0a19e011e6f51dba452c09327846fd40", "image": "upload/95dc18ef-4c58-4be6-9677-dce7cd7a2267", "name": "ผัดไทเจ้สาว", "name_en": "Sawpadthai", "category": "ร้านอาหาร", "sub_category": "อาหารทั่วไป อาหารตามสั่ง อาหารจานเดียว"}, "type": "Feature"}, {"geometry": {"coordinates": [98.781412, 10.414649], "type": "Point"}, "properties": {"id": "694a826934203ed09a6652525450f286", "image": "upload/95dc18ef-4c58-4be6-9677-dce7cd7a2267", "name": "นครหลวงเมืองฟ้า", "name_en": "", "category": "ร้านค้าธงฟ้า", "sub_category": ""}, "type": "Feature"}, {"geometry": {"coordinates": [98.633339, 9.962458], "type": "Point"}, "properties": {"id": "2dfe82c3dc5f6c9b053928e94766a2e2", "image": "upload/95dc18ef-4c58-4be6-9677-dce7cd7a2267", "name": "แคนดี้เฮ้าส์(บายแพน)", "name_en": "CANDYHOUSE", "category": "ร้านอาหาร", "sub_category": "ของหวาน ไอศกรีม เบเกอรี่ เครื่องดื่ม"}, "type": "Feature"}, {"geometry": {"coordinates": [98.47038, 9.430767], "type": "Point"}, "properties": {"id": "4abd7608cbbde65d417c94f23d6ad1f0", "image": "upload/95dc18ef-4c58-4be6-9677-dce7cd7a2267", "name": "น.ส.ผาณิต อินทะเกษ", "name_en": "", "category": "ร้านค้าธงฟ้า", "sub_category": ""}, "type": "Feature"}, {"geometry": {"coordinates": [100.992538, 15.870032], "type": "Point"}, "properties": {"id": "d1c28266180453da8f07c32b9ab7c8a8", "image": "upload/95dc18ef-4c58-4be6-9677-dce7cd7a2267", "name": "ร้านนานชน มินิมาร์ท", "name_en": "", "category": "ร้านค้าท้องถิ่น/ผลิตภัณฑ์ชุมชน/OTOP", "sub_category": ""}, "type": "Feature"}, {"geometry": {"coordinates": [98.635524, 9.973161], "type": "Point"}, "properties": {"id": "091dd206a3cfce8b03fd166904ad580d", "image": "upload/95dc18ef-4c58-4be6-9677-dce7cd7a2267", "name": "เกาเหลาเครื่องเขียน กิ๊ฟช้อป", "name_en": "TANAPORN", "category": "ซุปเปอร์มาร์เก็ต/ขายของใช้/ขายของชำ/มินิมาร์ท/ตลาดสด", "sub_category": "ร้านขายของใช้ / อุปกรณ์"}, "type": "Feature"}, {"geometry": {"coordinates": [98.769903, 10.401554], "type": "Point"}, "properties": {"id": "c4d748fcb33cdd7e28b3b48741df48ff", "image": "upload/95dc18ef-4c58-4be6-9677-dce7cd7a2267", "name": "จิรทีปต์", "name_en": "", "category": "ร้านค้าธงฟ้า", "sub_category": ""}, "type": "Feature"}, {"geometry": {"coordinates": [98.832825, 10.526434], "type": "Point"}, "properties": {"id": "7d3bf7f191083213fa5e17aebc88f410", "image": "upload/95dc18ef-4c58-4be6-9677-dce7cd7a2267", "name": "กนกวรรณ", "name_en": "", "category": "ร้านค้าธงฟ้า", "sub_category": ""}, "type": "Feature"}, {"geometry": {"coordinates": [98.63872553777797, 9.975790599121476], "type": "Point"}, "properties": {"id": "e99210e2d5091f70bbb38b649041b170", "image": "upload/4d2c1c0f-1f51-4041-836c-7fe32b66183c", "name": "ร้านข้าวแกง ฅ.ฅอน", "name_en": "Kon kron", "category": "ร้านอาหาร", "sub_category": "อาหารทั่วไป อาหารตามสั่ง อาหารจานเดียว"}, "type": "Feature"}, {"geometry": {"coordinates": [98.633206, 9.975468], "type": "Point"}, "properties": {"id": "64f86bb77ed682728e6807c99cfcd810", "image": "upload/4d2c1c0f-1f51-4041-836c-7fe32b66183c", "name": "สุรดา", "name_en": "", "category": "ร้านค้าธงฟ้า", "sub_category": ""}, "type": "Feature"}, {"geometry": {"coordinates": [98.629882, 9.961009], "type": "Point"}, "properties": {"id": "3d8e57417e55aeb9a848b606b60640a5", "image": "upload/4d2c1c0f-1f51-4041-836c-7fe32b66183c", "name": "จู้ขายมะม่วง", "name_en": "DARUNEE", "category": "ร้านอาหาร", "sub_category": "ร้านขายผลไม้ / ร้านขายผัก"}, "type": "Feature"}, {"geometry": {"coordinates": [98.57984, 9.537277], "type": "Point"}, "properties": {"id": "ad70f2f80f3700865235fd1a091f53cf", "image": "upload/4d2c1c0f-1f51-4041-836c-7fe32b66183c", "name": "ปั๊มน้ำมันสามชาย", "name_en": "", "category": "ร้านค้าธงฟ้า", "sub_category": ""}, "type": "Feature"}, {"geometry": {"coordinates": [98.652159, 9.958483], "type": "Point"}, "properties": {"id": "955b3c8415c8b95e95bf5e8bfd2724da", "image": "upload/4d2c1c0f-1f51-4041-836c-7fe32b66183c", "name": "กะปิโกศักดิ์", "name_en": "SANGKEAW", "category": "ซุปเปอร์มาร์เก็ต/ขายของใช้/ขายของชำ/มินิมาร์ท/ตลาดสด", "sub_category": "มินิมาร์ท / ร้านขายของชำ"}, "type": "Feature"}, {"geometry": {"coordinates": [98.63872840222577, 9.919557431355818], "type": "Point"}, "properties": {"id": "931d279a8c4d1ae22d475e1ae68eda08", "image": "upload/4d2c1c0f-1f51-4041-836c-7fe32b66183c", "name": "ร้านส้มตำอินดี้", "name_en": "Somtumindy", "category": "ร้านอาหาร", "sub_category": "ร้านอาหารอีสาน"}, "type": "Feature"}, {"geometry": {"coordinates": [98.591495, 9.585631], "type": "Point"}, "properties": {"id": "56c4cb5fbdaf4c06104756d388ccba51", "image": "upload/4d2c1c0f-1f51-4041-836c-7fe32b66183c", "name": "มลฤทัย", "name_en": "", "category": "ร้านค้าธงฟ้า", "sub_category": ""}, "type": "Feature"}, {"geometry": {"coordinates": [98.6910162, 9.9502829], "type": "Point"}, "properties": {"id": "06b93bb017629e3b3023aa8b75a4c49c", "image": "upload/1896c572-a743-4413-8fb1-720bc013a220", "name": "ในเตี่ยม", "name_en": "Naitiam", "category": "กิจการ OTOP", "sub_category": "ผลิตภัณฑ์อาหาร"}, "type": "Feature"}, {"geometry": {"coordinates": [98.625397, 9.962127], "type": "Point"}, "properties": {"id": "2464316ebaccb597334c928b0b0efe6e", "image": "upload/1896c572-a743-4413-8fb1-720bc013a220", "name": "เจ้มาขายกุ้ง", "name_en": "MA", "category": "ซุปเปอร์มาร์เก็ต/ขายของใช้/ขายของชำ/มินิมาร์ท/ตลาดสด", "sub_category": "ตลาดสด"}, "type": "Feature"}, {"geometry": {"coordinates": [98.6170927, 9.853999], "type": "Point"}, "properties": {"id": "f2abf21cdf2bb9d66c1ea21c3f729c26", "image": "upload/f1bd3c11-e9d0-439d-9127-0fcdc1b7ad3d", "name": "กะปิระนองมิสเตอร์แจ๊สระนอง", "name_en": "MRJAZZRANONG", "category": "ของฝาก/ของที่ระลึก", "sub_category": "ร้านขายของฝาก"}, "type": "Feature"}, {"geometry": {"coordinates": [100.992538, 15.870032], "type": "Point"}, "properties": {"id": "fd81fbf52a33e320e2c6cbf088af20e4", "image": "upload/f1bd3c11-e9d0-439d-9127-0fcdc1b7ad3d", "name": "จ้ะห้ะ", "name_en": "LIHA", "category": "ซุปเปอร์มาร์เก็ต/ขายของใช้/ขายของชำ/มินิมาร์ท/ตลาดสด", "sub_category": "มินิมาร์ท / ร้านขายของชำ"}, "type": "Feature"}, {"geometry": {"coordinates": [98.624267578125, 9.959657317510572], "type": "Point"}, "properties": {"id": "64c141319e6492de2f073b8a08b3ea9a", "image": "upload/e211203c-0bef-44bd-aa66-1c5748463e8f", "name": "ร้านไอศครีม", "name_en": "Ice Cream", "category": "ร้านอาหาร", "sub_category": "ของหวาน ไอศกรีม เบเกอรี่ เครื่องดื่ม"}, "type": "Feature"}, {"geometry": {"coordinates": [99.221573, 10.625347], "type": "Point"}, "properties": {"id": "627bf06d226ac1d9105dfa082e7aafd9", "image": "upload/e211203c-0bef-44bd-aa66-1c5748463e8f", "name": "รัชนก หงษะ", "name_en": "JEANOKSOMTUM", "category": "ร้านอาหาร", "sub_category": "อาหารทั่วไป อาหารตามสั่ง อาหารจานเดียว"}, "type": "Feature"}, {"geometry": {"coordinates": [98.6404592, 9.9782359], "type": "Point"}, "properties": {"id": "e7d1b79731b07d1378163b81f560ff65", "image": "upload/2422e0d7-0464-4132-bd0f-1344740b715b", "name": "ครัวแมงโก้", "name_en": "The Mango Kitchen", "category": "ร้านอาหาร", "sub_category": "อาหารทั่วไป อาหารตามสั่ง อาหารจานเดียว"}, "type": "Feature"}, {"geometry": {"coordinates": [98.632923, 9.958671], "type": "Point"}, "properties": {"id": "02046e5eb61b41198376c8277905e69a", "image": "upload/2422e0d7-0464-4132-bd0f-1344740b715b", "name": "อุไร เติมกิจวาณิชย์", "name_en": "AURAI", "category": "ซุปเปอร์มาร์เก็ต/ขายของใช้/ขายของชำ/มินิมาร์ท/ตลาดสด", "sub_category": "มินิมาร์ท / ร้านขายของชำ"}, "type": "Feature"}, {"geometry": {"coordinates": [98.62550675868988, 9.960935940167866], "type": "Point"}, "properties": {"id": "bf61587f08a004e9f01a144ee60f0d3a", "image": "upload/9185f7d0-dfe3-4a8b-8f3e-0a97b8fda40f", "name": "ครัวเสาวนา อาหารตามสั่ง", "name_en": "Sewana", "category": "ร้านอาหาร", "sub_category": "อาหารทั่วไป อาหารตามสั่ง อาหารจานเดียว"}, "type": "Feature"}, {"geometry": {"coordinates": [98.597003, 9.950396], "type": "Point"}, "properties": {"id": "5412a8f8b54677e1f52cc33a59216fab", "image": "upload/9185f7d0-dfe3-4a8b-8f3e-0a97b8fda40f", "name": "มานะชัย", "name_en": "", "category": "ร้านอาหาร/เครื่องดื่ม", "sub_category": ""}, "type": "Feature"}, {"geometry": {"coordinates": [98.761282, 9.783693], "type": "Point"}, "properties": {"id": "45f31a0c70d9bc533e552782ddfa0fde", "image": "upload/9185f7d0-dfe3-4a8b-8f3e-0a97b8fda40f", "name": "หอยหวานผัด", "name_en": "HOYWHAANPHAD", "category": "ร้านอาหาร", "sub_category": "อาหารทั่วไป อาหารตามสั่ง อาหารจานเดียว"}, "type": "Feature"}, {"geometry": {"coordinates": [98.548204, 9.633921], "type": "Point"}, "properties": {"id": "f9414ba3e67c25ad27181c8cc902039e", "image": "upload/9185f7d0-dfe3-4a8b-8f3e-0a97b8fda40f", "name": "เตี๊ยวเรือ อิ่ม 20 โกบ่ำ", "name_en": "KETSARIN", "category": "ร้านอาหาร", "sub_category": "ก๋วยเตี๋ยว ก๋วยจั๊บ"}, "type": "Feature"}, {"geometry": {"coordinates": [100.971429, 15.817015], "type": "Point"}, "properties": {"id": "e361b76b85d91ad2e3a132d31cba0952", "image": "upload/9185f7d0-dfe3-4a8b-8f3e-0a97b8fda40f", "name": "ร้านประเทืองข้ามเจ็ด", "name_en": "", "category": "ร้านค้าธงฟ้า", "sub_category": ""}, "type": "Feature"}, {"geometry": {"coordinates": [98.419535, 9.376493], "type": "Point"}, "properties": {"id": "ba81021f5eb4867c75e2cedd97708b19", "image": "upload/9185f7d0-dfe3-4a8b-8f3e-0a97b8fda40f", "name": "วรดาภัณฑ์", "name_en": null, "category": "ร้านค้าท้องถิ่น/ผลิตภัณฑ์ชุมชน/OTOP", "sub_category": ""}, "type": "Feature"}, {"geometry": {"coordinates": [98.776077, 10.338616], "type": "Point"}, "properties": {"id": "79d29d3adc83555ebd3ad23083d7df37", "image": "upload/9185f7d0-dfe3-4a8b-8f3e-0a97b8fda40f", "name": "ร้านส้มตำ", "name_en": "NATTINEE", "category": "ร้านอาหาร", "sub_category": "ร้านอาหารอีสาน"}, "type": "Feature"}, {"geometry": {"coordinates": [98.6245382, 9.9589343], "type": "Point"}, "properties": {"id": "10eb227ff7736f65fc8ac36cf8717286", "image": "upload/5587ac64-bbad-4cd2-87fb-767901632507", "name": "ร้านเอฟบีที ออฟฟิเชียล สโตร์ ระนอง", "name_en": "", "category": "กีฬา", "sub_category": "ร้านขายอุปกรณ์เพื่อการกีฬา"}, "type": "Feature"}, {"geometry": {"coordinates": [98.633, 9.9324246], "type": "Point"}, "properties": {"id": "0992b3e15afe9799a90ebb4f0b6be43e", "image": "upload/aa834293-cdc6-4191-88c6-105e2c46af49", "name": "ฟาร์มสุขคาเฟ่แอนด์การ์เด้นท์", "name_en": "PharmSook Cafe’& Garden", "category": "ร้านอาหาร", "sub_category": "ของหวาน ไอศกรีม เบเกอรี่ เครื่องดื่ม"}, "type": "Feature"}, {"geometry": {"coordinates": [98.560975, 9.668092], "type": "Point"}, "properties": {"id": "201e71998805ea40a1b69fff4764207a", "image": "upload/aa834293-cdc6-4191-88c6-105e2c46af49", "name": "ลิม๊ะการค้า", "name_en": "", "category": "ร้านค้าธงฟ้า", "sub_category": ""}, "type": "Feature"}, {"geometry": {"coordinates": [98.645425, 9.96455], "type": "Point"}, "properties": {"id": "70d1e0409107973eaac294a6c36ca1e9", "image": "upload/aa834293-cdc6-4191-88c6-105e2c46af49", "name": "น้องลิน ขายของเล่น", "name_en": "NONGLINSHOP", "category": "ซุปเปอร์มาร์เก็ต/ขายของใช้/ขายของชำ/มินิมาร์ท/ตลาดสด", "sub_category": "ร้านขายของใช้ / อุปกรณ์"}, "type": "Feature"}, {"geometry": {"coordinates": [98.642477, 9.963817], "type": "Point"}, "properties": {"id": "0fdaebe877961f5d13475dc5598fa2fe", "image": "upload/aa834293-cdc6-4191-88c6-105e2c46af49", "name": "เอ๊ะเย็นตาโฟ", "name_en": "AEYENTAFORE", "category": "ร้านอาหาร", "sub_category": "อื่นๆ"}, "type": "Feature"}, {"geometry": {"coordinates": [98.416195, 9.341658], "type": "Point"}, "properties": {"id": "d2da22a75d996014f60e04e3fdfbf224", "image": "upload/aa834293-cdc6-4191-88c6-105e2c46af49", "name": "ร้านจ๊ะตีม๊ะ", "name_en": "FATEEMA", "category": "ซุปเปอร์มาร์เก็ต/ขายของใช้/ขายของชำ/มินิมาร์ท/ตลาดสด", "sub_category": "มินิมาร์ท / ร้านขายของชำ"}, "type": "Feature"}, {"geometry": {"coordinates": [98.643661, 9.9627727], "type": "Point"}, "properties": {"id": "5cc1df5d66545657b4d0e7588bc6cef2", "image": "upload/593e5bd1-7188-4c56-9aae-d1ef941c9131", "name": "ร้านอร่ามพร", "name_en": "Ranaramporn", "category": "ร้านอาหาร", "sub_category": "อาหารทั่วไป อาหารตามสั่ง อาหารจานเดียว"}, "type": "Feature"}, {"geometry": {"coordinates": [98.805534, 10.561437], "type": "Point"}, "properties": {"id": "ebcf5cad7de93c5c6194e7c38066ef6c", "image": "upload/593e5bd1-7188-4c56-9aae-d1ef941c9131", "name": "นายทวีศักดิ์ ปานแป้น", "name_en": "", "category": "ร้านค้าธงฟ้า", "sub_category": ""}, "type": "Feature"}, {"geometry": {"coordinates": [98.626255, 9.960801], "type": "Point"}, "properties": {"id": "b2d9bce8f0821a45b231d0798d9c472a", "image": "upload/593e5bd1-7188-4c56-9aae-d1ef941c9131", "name": "โรตีใบเตย", "name_en": "ROTEEBAITOEY", "category": "ร้านอาหาร", "sub_category": "อาหารทั่วไป อาหารตามสั่ง อาหารจานเดียว"}, "type": "Feature"}, {"geometry": {"coordinates": [98.63832101225853, 9.958325853880815], "type": "Point"}, "properties": {"id": "9f02e4ef8205e9c5213bdbe62565a7f7", "image": "upload/407187e5-4564-42ed-afd8-d2742ff7917c", "name": "โอทอปไลฟ์สไตล์", "name_en": "OTOP Lifestyle", "category": "ร้านอาหาร", "sub_category": "อื่นๆ"}, "type": "Feature"}, {"geometry": {"coordinates": [98.42358659935557, 9.366048311365779], "type": "Point"}, "properties": {"id": "dc54a82c63d1eb5329ca208319c951f0", "image": "upload/f6f4e9cc-cf03-4eae-8768-e0af9f2941b0", "name": "บ้านชา", "name_en": "CHONLADA", "category": "ร้านอาหาร", "sub_category": "ของหวาน ไอศกรีม เบเกอรี่ เครื่องดื่ม"}, "type": "Feature"}, {"geometry": {"coordinates": [98.739932, 10.048559], "type": "Point"}, "properties": {"id": "afd99da3c54cb7838882d46744407e1a", "image": "upload/f6f4e9cc-cf03-4eae-8768-e0af9f2941b0", "name": "ร้านแม่กิ้มหว้า", "name_en": "", "category": "ร้านค้าธงฟ้า", "sub_category": ""}, "type": "Feature"}, {"geometry": {"coordinates": [98.423007, 9.372367], "type": "Point"}, "properties": {"id": "8fa858592bf53c62575d2f6d6850f1af", "image": "upload/f6f4e9cc-cf03-4eae-8768-e0af9f2941b0", "name": "ติ่มซำกำพวน", "name_en": "HATAIRAT", "category": "ร้านอาหาร", "sub_category": "อื่นๆ"}, "type": "Feature"}, {"geometry": {"coordinates": [98.611042, 9.851427], "type": "Point"}, "properties": {"id": "e0b6baad0d519801c149d687a5a94bec", "image": "upload/f6f4e9cc-cf03-4eae-8768-e0af9f2941b0", "name": "โอม ดอกไม้ธูปเทียน", "name_en": "OHM", "category": "ซุปเปอร์มาร์เก็ต/ขายของใช้/ขายของชำ/มินิมาร์ท/ตลาดสด", "sub_category": "ตลาดสด"}, "type": "Feature"}, {"geometry": {"coordinates": [98.548204, 9.633921], "type": "Point"}, "properties": {"id": "f9414ba3e67c25ad27181c8cc902039e", "image": "upload/f6f4e9cc-cf03-4eae-8768-e0af9f2941b0", "name": "เตี๊ยวเรือ อิ่ม 20 โกบ่ำ", "name_en": "KETSARIN", "category": "ร้านอาหาร", "sub_category": "ก๋วยเตี๋ยว ก๋วยจั๊บ"}, "type": "Feature"}, {"geometry": {"coordinates": [98.642477, 9.963817], "type": "Point"}, "properties": {"id": "0fdaebe877961f5d13475dc5598fa2fe", "image": "upload/f6f4e9cc-cf03-4eae-8768-e0af9f2941b0", "name": "เอ๊ะเย็นตาโฟ", "name_en": "AEYENTAFORE", "category": "ร้านอาหาร", "sub_category": "อื่นๆ"}, "type": "Feature"}, {"geometry": {"coordinates": [98.416195, 9.341658], "type": "Point"}, "properties": {"id": "d2da22a75d996014f60e04e3fdfbf224", "image": "upload/f6f4e9cc-cf03-4eae-8768-e0af9f2941b0", "name": "ร้านจ๊ะตีม๊ะ", "name_en": "FATEEMA", "category": "ซุปเปอร์มาร์เก็ต/ขายของใช้/ขายของชำ/มินิมาร์ท/ตลาดสด", "sub_category": "มินิมาร์ท / ร้านขายของชำ"}, "type": "Feature"}, {"geometry": {"coordinates": [98.419535, 9.376493], "type": "Point"}, "properties": {"id": "ba81021f5eb4867c75e2cedd97708b19", "image": "upload/f6f4e9cc-cf03-4eae-8768-e0af9f2941b0", "name": "วรดาภัณฑ์", "name_en": null, "category": "ร้านค้าท้องถิ่น/ผลิตภัณฑ์ชุมชน/OTOP", "sub_category": ""}, "type": "Feature"}, {"geometry": {"coordinates": [98.62641, 9.961333], "type": "Point"}, "properties": {"id": "ba2c546f02001b0fcff52fc21504f183", "image": "upload/f6f4e9cc-cf03-4eae-8768-e0af9f2941b0", "name": "ร้านอาลิฟหน้าตึกระนองธานี", "name_en": "ALIF", "category": "ร้านอาหาร", "sub_category": "อาหารทั่วไป อาหารตามสั่ง อาหารจานเดียว"}, "type": "Feature"}, {"geometry": {"coordinates": [98.44908, 9.428404], "type": "Point"}, "properties": {"id": "050d52f3cf103653e17762d668fbbd3b", "image": "upload/f6f4e9cc-cf03-4eae-8768-e0af9f2941b0", "name": "รอมาฝัน(มัรกัส)", "name_en": "NASROH", "category": "ซุปเปอร์มาร์เก็ต/ขายของใช้/ขายของชำ/มินิมาร์ท/ตลาดสด", "sub_category": "มินิมาร์ท / ร้านขายของชำ"}, "type": "Feature"}, {"geometry": {"coordinates": [98.425105, 9.351624], "type": "Point"}, "properties": {"id": "7a7a16837c6e379e0a409145cbb02507", "image": "upload/f6f4e9cc-cf03-4eae-8768-e0af9f2941b0", "name": "กินไรดีตามสั่ง", "name_en": "HASANA", "category": "ร้านอาหาร", "sub_category": "อาหารทั่วไป อาหารตามสั่ง อาหารจานเดียว"}, "type": "Feature"}, {"geometry": {"coordinates": [98.63542556762695, 9.957448775664645], "type": "Point"}, "properties": {"id": "22db0ccd330b99ac3e88aa7f970678af", "image": "upload/c0a883e7-03a7-4ca5-aa65-b7db48a999ca", "name": "ฤดูกาแฟ", "name_en": "Coffee Season", "category": "ร้านอาหาร", "sub_category": "ของหวาน ไอศกรีม เบเกอรี่ เครื่องดื่ม"}, "type": "Feature"}, {"geometry": {"coordinates": [98.841995, 10.249019], "type": "Point"}, "properties": {"id": "b4968add3183f128d43fa8113e5555a3", "image": "upload/c0a883e7-03a7-4ca5-aa65-b7db48a999ca", "name": "โสภา", "name_en": "", "category": "ร้านค้าธงฟ้า", "sub_category": ""}, "type": "Feature"}, {"geometry": {"coordinates": [98.420221, 9.376084], "type": "Point"}, "properties": {"id": "651185253c536621083ea401d8ef779c", "image": "upload/c0a883e7-03a7-4ca5-aa65-b7db48a999ca", "name": "คุระเครื่องเรือน", "name_en": "", "category": "ร้านค้าธงฟ้า", "sub_category": ""}, "type": "Feature"}, {"geometry": {"coordinates": [98.64384, 9.979668], "type": "Point"}, "properties": {"id": "95afae21d90b25b7ddd9bd9c8c8ab045", "image": "upload/c0a883e7-03a7-4ca5-aa65-b7db48a999ca", "name": "ร้านสวนมังคุด", "name_en": "", "category": "ร้านอาหาร/เครื่องดื่ม", "sub_category": ""}, "type": "Feature"}, {"geometry": {"coordinates": [98.643661, 9.9627727], "type": "Point"}, "properties": {"id": "5cc1df5d66545657b4d0e7588bc6cef2", "image": "upload/593e5bd1-7188-4c56-9aae-d1ef941c9131", "name": "ร้านอร่ามพร", "name_en": "Ranaramporn", "category": "ร้านอาหาร", "sub_category": "อาหารทั่วไป อาหารตามสั่ง อาหารจานเดียว"}, "type": "Feature"}, {"geometry": {"coordinates": [98.628737, 9.95809], "type": "Point"}, "properties": {"id": "683b572f74ceb8340bacf6d6b2e7034c", "image": "upload/593e5bd1-7188-4c56-9aae-d1ef941c9131", "name": "อดิเรก กะการดี", "name_en": "ADIREK", "category": "ร้านอาหาร", "sub_category": "อาหารว่าง ขนม ของกินเล่น"}, "type": "Feature"}, {"geometry": {"coordinates": [98.422101, 9.365999], "type": "Point"}, "properties": {"id": "6cda8b9bd64838b49ad028f2b0c1069f", "image": "upload/593e5bd1-7188-4c56-9aae-d1ef941c9131", "name": "ร้านชารีฟน้องยา", "name_en": "CHREEF", "category": "ซุปเปอร์มาร์เก็ต/ขายของใช้/ขายของชำ/มินิมาร์ท/ตลาดสด", "sub_category": "มินิมาร์ท / ร้านขายของชำ"}, "type": "Feature"}, {"geometry": {"coordinates": [100.992538, 15.870032], "type": "Point"}, "properties": {"id": "52d57c1ae0f112fa95689c06d1aaa0ad", "image": "upload/593e5bd1-7188-4c56-9aae-d1ef941c9131", "name": "ร้านพิชา ขายเสื้อผ้า", "name_en": "PICHA", "category": "แฟชั่น", "sub_category": "ร้านขายเสื้อผ้า / เครื่องประดับ / สินค้าแฟชั่น"}, "type": "Feature"}, {"geometry": {"coordinates": [98.598383, 9.848002], "type": "Point"}, "properties": {"id": "88e9016456a54f25360ee0837e973515", "image": "upload/593e5bd1-7188-4c56-9aae-d1ef941c9131", "name": "ร้านบุหรัน", "name_en": "", "category": "ร้านค้าธงฟ้า", "sub_category": ""}, "type": "Feature"}, {"geometry": {"coordinates": [98.63439559936523, 9.975655590337], "type": "Point"}, "properties": {"id": "9cc8b564907be31366fc8a633163dc3c", "image": "upload/026b9e55-51f6-496f-8943-483074c07042", "name": "ก๋วยเตี๋ยวรสดัง", "name_en": "Rotdung noodles", "category": "ร้านอาหาร", "sub_category": "ก๋วยเตี๋ยว ก๋วยจั๊บ"}, "type": "Feature"}, {"geometry": {"coordinates": [98.637319, 9.972541], "type": "Point"}, "properties": {"id": "3373d74ffbf1c6a2a168563ce2218292", "image": "upload/026b9e55-51f6-496f-8943-483074c07042", "name": "แม่ปั้น", "name_en": "ATHITA", "category": "ร้านอาหาร", "sub_category": "อาหารทั่วไป อาหารตามสั่ง อาหารจานเดียว"}, "type": "Feature"}, {"geometry": {"coordinates": [98.634239, 9.931714], "type": "Point"}, "properties": {"id": "8b480ca79a57195e545fd10e3c24a53e", "image": "upload/026b9e55-51f6-496f-8943-483074c07042", "name": "กันเอง อาหารเช้า", "name_en": "GUNAENG", "category": "ร้านอาหาร", "sub_category": "ข้าวต้ม โจ๊ก เกาเหลา"}, "type": "Feature"}, {"geometry": {"coordinates": [100.992538, 15.870032], "type": "Point"}, "properties": {"id": "52d57c1ae0f112fa95689c06d1aaa0ad", "image": "upload/026b9e55-51f6-496f-8943-483074c07042", "name": "ร้านพิชา ขายเสื้อผ้า", "name_en": "PICHA", "category": "แฟชั่น", "sub_category": "ร้านขายเสื้อผ้า / เครื่องประดับ / สินค้าแฟชั่น"}, "type": "Feature"}, {"geometry": {"coordinates": [98.598383, 9.848002], "type": "Point"}, "properties": {"id": "88e9016456a54f25360ee0837e973515", "image": "upload/026b9e55-51f6-496f-8943-483074c07042", "name": "ร้านบุหรัน", "name_en": "", "category": "ร้านค้าธงฟ้า", "sub_category": ""}, "type": "Feature"}, {"geometry": {"coordinates": [98.427632, 9.385084], "type": "Point"}, "properties": {"id": "d0b7dab94cf61110986095ade1efbc64", "image": "upload/026b9e55-51f6-496f-8943-483074c07042", "name": "สุภาเล่อคาเฟ่", "name_en": "SUPALECAFE", "category": "ร้านอาหาร", "sub_category": "ของหวาน ไอศกรีม เบเกอรี่ เครื่องดื่ม"}, "type": "Feature"}, {"geometry": {"coordinates": [98.63439559936523, 9.975655590337], "type": "Point"}, "properties": {"id": "9cc8b564907be31366fc8a633163dc3c", "image": "upload/026b9e55-51f6-496f-8943-483074c07042", "name": "ก๋วยเตี๋ยวรสดัง", "name_en": "Rotdung noodles", "category": "ร้านอาหาร", "sub_category": "ก๋วยเตี๋ยว ก๋วยจั๊บ"}, "type": "Feature"}, {"geometry": {"coordinates": [98.86041, 10.040185], "type": "Point"}, "properties": {"id": "c6fa90b20654a318a21423cc76e9ebc2", "image": "upload/026b9e55-51f6-496f-8943-483074c07042", "name": "ในวงการยาง", "name_en": "", "category": "ร้านค้าธงฟ้า", "sub_category": ""}, "type": "Feature"}, {"geometry": {"coordinates": [98.631358, 9.954847], "type": "Point"}, "properties": {"id": "9ce4db7673d04e3c3139011a0983eae3", "image": "upload/026b9e55-51f6-496f-8943-483074c07042", "name": "CHANOK", "name_en": "CHANOK", "category": "ร้านอาหาร", "sub_category": "ของหวาน ไอศกรีม เบเกอรี่ เครื่องดื่ม"}, "type": "Feature"}, {"geometry": {"coordinates": [98.795633, 10.417302], "type": "Point"}, "properties": {"id": "f4aa52686aed109f48f334ffaf85077d", "image": "upload/026b9e55-51f6-496f-8943-483074c07042", "name": "ยุพิน", "name_en": "", "category": "ร้านค้าธงฟ้า", "sub_category": ""}, "type": "Feature"}, {"geometry": {"coordinates": [98.594766, 9.953147], "type": "Point"}, "properties": {"id": "c2f5b91051e93d3678efaf92d8402bd6", "image": "upload/026b9e55-51f6-496f-8943-483074c07042", "name": "บังซอและ", "name_en": "", "category": "ร้านค้าธงฟ้า", "sub_category": ""}, "type": "Feature"}, {"geometry": {"coordinates": [98.85112758885555, 9.87426261943991], "type": "Point"}, "properties": {"id": "eedf508bf034d46a77aaf8905ab75999", "image": "upload/0c3a70c1-4b30-4f93-8804-ec91122d2f3e", "name": "โกปี้สีคราม", "name_en": "Kopeesrikram", "category": "ร้านอาหาร", "sub_category": "ของหวาน ไอศกรีม เบเกอรี่ เครื่องดื่ม"}, "type": "Feature"}, {"geometry": {"coordinates": [98.630612, 9.921803], "type": "Point"}, "properties": {"id": "9e2b26c2b912ce9a37ed4babb9e774f4", "image": "upload/0c3a70c1-4b30-4f93-8804-ec91122d2f3e", "name": "รัตติยา หุ่นบำรุง", "name_en": "RATTIYA", "category": "ซุปเปอร์มาร์เก็ต/ขายของใช้/ขายของชำ/มินิมาร์ท/ตลาดสด", "sub_category": "มินิมาร์ท / ร้านขายของชำ"}, "type": "Feature"}, {"geometry": {"coordinates": [98.77494, 10.4033], "type": "Point"}, "properties": {"id": "880df3d2be97ec711079b7d29a39fcf7", "image": "upload/0c3a70c1-4b30-4f93-8804-ec91122d2f3e", "name": "ปาลิตา", "name_en": "", "category": "ร้านค้าธงฟ้า", "sub_category": ""}, "type": "Feature"}, {"geometry": {"coordinates": [98.598758, 9.742108], "type": "Point"}, "properties": {"id": "5f09373291c703123f0a13d778fef4e4", "image": "upload/0c3a70c1-4b30-4f93-8804-ec91122d2f3e", "name": "พี่หนูขายผัก", "name_en": "PATCHARAOORN", "category": "ซุปเปอร์มาร์เก็ต/ขายของใช้/ขายของชำ/มินิมาร์ท/ตลาดสด", "sub_category": "ตลาดสด"}, "type": "Feature"}, {"geometry": {"coordinates": [98.7314222, 10.0068934], "type": "Point"}, "properties": {"id": "e65ba2bec7966532ff46d1c5c30cc834", "image": "upload/2b4b93ef-277c-4c70-85b3-a2593165c474", "name": "ร้านคุณวราพร", "name_en": "", "category": "ซุปเปอร์มาร์เก็ต/ขายของใช้/ขายของชำ/มินิมาร์ท/ตลาดสด", "sub_category": "มินิมาร์ท / ร้านขายของชำ"}, "type": "Feature"}, {"geometry": {"coordinates": [98.6330153, 9.9587268], "type": "Point"}, "properties": {"id": "2a94f9ed46fee40565447a78b5c7ef9c", "image": "upload/c4fa41e6-6be2-4440-9174-c598ca41ce33", "name": "ร้านโจ๊ก 3 ชั้น", "name_en": "Jok 3 chan", "category": "ร้านอาหาร", "sub_category": "ข้าวต้ม โจ๊ก เกาเหลา"}, "type": "Feature"}, {"geometry": {"coordinates": [98.690297, 9.955001], "type": "Point"}, "properties": {"id": "8b7bfc063e8fa83435779bbd575fb3dd", "image": "upload/c4fa41e6-6be2-4440-9174-c598ca41ce33", "name": "สุนันทา", "name_en": "", "category": "ร้านค้าธงฟ้า", "sub_category": ""}, "type": "Feature"}, {"geometry": {"coordinates": [98.642, 9.9645126], "type": "Point"}, "properties": {"id": "c8786a092e00c8ee01599407afc7f66e", "image": "upload/4316294e-e1df-4d9c-8f5c-bdf09faf5c67", "name": "ร้านเอิร์ทคอฟฟี่", "name_en": "EarthCoffee", "category": "ร้านอาหาร", "sub_category": "ของหวาน ไอศกรีม เบเกอรี่ เครื่องดื่ม"}, "type": "Feature"}, {"geometry": {"coordinates": [98.44908, 9.428404], "type": "Point"}, "properties": {"id": "050d52f3cf103653e17762d668fbbd3b", "image": "upload/4316294e-e1df-4d9c-8f5c-bdf09faf5c67", "name": "รอมาฝัน(มัรกัส)", "name_en": "NASROH", "category": "ซุปเปอร์มาร์เก็ต/ขายของใช้/ขายของชำ/มินิมาร์ท/ตลาดสด", "sub_category": "มินิมาร์ท / ร้านขายของชำ"}, "type": "Feature"}, {"geometry": {"coordinates": [98.425105, 9.351624], "type": "Point"}, "properties": {"id": "7a7a16837c6e379e0a409145cbb02507", "image": "upload/4316294e-e1df-4d9c-8f5c-bdf09faf5c67", "name": "กินไรดีตามสั่ง", "name_en": "HASANA", "category": "ร้านอาหาร", "sub_category": "อาหารทั่วไป อาหารตามสั่ง อาหารจานเดียว"}, "type": "Feature"}, {"geometry": {"coordinates": [98.63542556762695, 9.957448775664645], "type": "Point"}, "properties": {"id": "22db0ccd330b99ac3e88aa7f970678af", "image": "upload/c0a883e7-03a7-4ca5-aa65-b7db48a999ca", "name": "ฤดูกาแฟ", "name_en": "Coffee Season", "category": "ร้านอาหาร", "sub_category": "ของหวาน ไอศกรีม เบเกอรี่ เครื่องดื่ม"}, "type": "Feature"}, {"geometry": {"coordinates": [98.62641, 9.961333], "type": "Point"}, "properties": {"id": "ba2c546f02001b0fcff52fc21504f183", "image": "upload/c0a883e7-03a7-4ca5-aa65-b7db48a999ca", "name": "ร้านอาลิฟหน้าตึกระนองธานี", "name_en": "ALIF", "category": "ร้านอาหาร", "sub_category": "อาหารทั่วไป อาหารตามสั่ง อาหารจานเดียว"}, "type": "Feature"}, {"geometry": {"coordinates": [98.420221, 9.376084], "type": "Point"}, "properties": {"id": "651185253c536621083ea401d8ef779c", "image": "upload/c0a883e7-03a7-4ca5-aa65-b7db48a999ca", "name": "คุระเครื่องเรือน", "name_en": "", "category": "ร้านค้าธงฟ้า", "sub_category": ""}, "type": "Feature"}, {"geometry": {"coordinates": [98.841995, 10.249019], "type": "Point"}, "properties": {"id": "b4968add3183f128d43fa8113e5555a3", "image": "upload/c0a883e7-03a7-4ca5-aa65-b7db48a999ca", "name": "โสภา", "name_en": "", "category": "ร้านค้าธงฟ้า", "sub_category": ""}, "type": "Feature"}, {"geometry": {"coordinates": [98.64384, 9.979668], "type": "Point"}, "properties": {"id": "95afae21d90b25b7ddd9bd9c8c8ab045", "image": "upload/c0a883e7-03a7-4ca5-aa65-b7db48a999ca", "name": "ร้านสวนมังคุด", "name_en": "", "category": "ร้านอาหาร/เครื่องดื่ม", "sub_category": ""}, "type": "Feature"}, {"geometry": {"coordinates": [98.418755, 9.375573], "type": "Point"}, "properties": {"id": "5486fdeeb79b62346818ca780adb6095", "image": "upload/c0a883e7-03a7-4ca5-aa65-b7db48a999ca", "name": "รองเท้า", "name_en": "THEERADAR", "category": "แฟชั่น", "sub_category": "ร้านขายเสื้อผ้า / เครื่องประดับ / สินค้าแฟชั่น"}, "type": "Feature"}, {"geometry": {"coordinates": [98.422475, 9.37778], "type": "Point"}, "properties": {"id": "9c17bb9b86a45f20d7a0b4e08d848fef", "image": "upload/c0a883e7-03a7-4ca5-aa65-b7db48a999ca", "name": "ส.เกษตรกิจ", "name_en": "", "category": "ร้านค้าธงฟ้า", "sub_category": ""}, "type": "Feature"}, {"geometry": {"coordinates": [98.625432, 9.962221], "type": "Point"}, "properties": {"id": "4338529b4ca83aaa06084ff46f8c2cc1", "image": "upload/c0a883e7-03a7-4ca5-aa65-b7db48a999ca", "name": "พี่นิด ขายหมู", "name_en": "PEENID", "category": "ซุปเปอร์มาร์เก็ต/ขายของใช้/ขายของชำ/มินิมาร์ท/ตลาดสด", "sub_category": "ตลาดสด"}, "type": "Feature"}, {"geometry": {"coordinates": [98.632903, 9.95854], "type": "Point"}, "properties": {"id": "fe26f1d243f1f1f808ca96fb709fcb48", "image": "upload/c0a883e7-03a7-4ca5-aa65-b7db48a999ca", "name": "ร้านรุจิรา", "name_en": "", "category": "ร้านค้าท้องถิ่น/ผลิตภัณฑ์ชุมชน/OTOP", "sub_category": ""}, "type": "Feature"}, {"geometry": {"coordinates": [98.638798, 9.97234], "type": "Point"}, "properties": {"id": "4600459e0f7ac7b57a32d7eb6bc5d29d", "image": "upload/4599d88f-19b1-4aa8-9551-1130985bca69", "name": "ร้านโชกุล", "name_en": "Shogun", "category": "ร้านอาหาร", "sub_category": "อาหารทั่วไป อาหารตามสั่ง อาหารจานเดียว"}, "type": "Feature"}, {"geometry": {"coordinates": [98.631253, 9.936127], "type": "Point"}, "properties": {"id": "f419e4274a5607cb6cd11f468d705824", "image": "upload/4599d88f-19b1-4aa8-9551-1130985bca69", "name": "วัชรี", "name_en": "", "category": "ร้านค้าธงฟ้า", "sub_category": ""}, "type": "Feature"}, {"geometry": {"coordinates": [98.636053, 9.974527], "type": "Point"}, "properties": {"id": "8bdb80ba0e00a8443b2992d2b72a1803", "image": "upload/4599d88f-19b1-4aa8-9551-1130985bca69", "name": "ฮาฟิสไก่ทอด", "name_en": "HAFIT", "category": "ร้านอาหาร", "sub_category": "อื่นๆ"}, "type": "Feature"}, {"geometry": {"coordinates": [98.615884, 9.955094], "type": "Point"}, "properties": {"id": "8080b36eb52c108c1ae024d469ba39f5", "image": "upload/4599d88f-19b1-4aa8-9551-1130985bca69", "name": "วรรณิศา", "name_en": "", "category": "ร้านค้าธงฟ้า", "sub_category": ""}, "type": "Feature"}, {"geometry": {"coordinates": [98.608182, 9.98317], "type": "Point"}, "properties": {"id": "e213cc0324150aad70b8032e52c3ebcb", "image": "upload/4599d88f-19b1-4aa8-9551-1130985bca69", "name": "ร้านเจ๊สาวเขานางหงส์", "name_en": "", "category": "ร้านค้าธงฟ้า", "sub_category": ""}, "type": "Feature"}, {"geometry": {"coordinates": [98.62964, 9.960428], "type": "Point"}, "properties": {"id": "ffd99e52ed3a368807095b804f5953fb", "image": "upload/4599d88f-19b1-4aa8-9551-1130985bca69", "name": "เจ้ดำ ผลไม้", "name_en": "PAKAKONG", "category": "ร้านอาหาร", "sub_category": "ร้านขายผลไม้ / ร้านขายผัก"}, "type": "Feature"}, {"geometry": {"coordinates": [98.637607, 9.959087], "type": "Point"}, "properties": {"id": "1a99105404d0ee950a43a68ceb1147f5", "image": "upload/b811f78a-564f-4771-a6ab-5caade2f81c3", "name": "นางชนิดาภา  สุขสวัสดิ์", "name_en": "", "category": "ร้านอาหาร", "sub_category": "อาหารทั่วไป อาหารตามสั่ง อาหารจานเดียว"}, "type": "Feature"}, {"geometry": {"coordinates": [98.63819628953934, 9.973021846772777], "type": "Point"}, "properties": {"id": "a90506330f0497909a25aac403beab35", "image": "upload/abd8974f-06f9-497e-9585-9e402ee0b8e1", "name": "มโนรมย์", "name_en": "Manorom", "category": "ร้านอาหาร", "sub_category": "อาหารทั่วไป อาหารตามสั่ง อาหารจานเดียว"}, "type": "Feature"}, {"geometry": {"coordinates": [98.872215, 10.572328], "type": "Point"}, "properties": {"id": "2599584140626523a552d656b1a559d5", "image": "upload/abd8974f-06f9-497e-9585-9e402ee0b8e1", "name": "สำราญ", "name_en": "", "category": "ร้านค้าธงฟ้า", "sub_category": ""}, "type": "Feature"}, {"geometry": {"coordinates": [98.826602, 10.50893], "type": "Point"}, "properties": {"id": "ed9bc131a331af5049ab5dbe6349baac", "image": "upload/c72fc1a3-80c7-4005-801b-64c44276dddd", "name": "เตี๋ยวตาหวาน", "name_en": "TIEWTAWHAN", "category": "ร้านอาหาร", "sub_category": "ก๋วยเตี๋ยว ก๋วยจั๊บ"}, "type": "Feature"}, {"geometry": {"coordinates": [98.501751, 9.463995], "type": "Point"}, "properties": {"id": "0d3b1334e30d60847a46537676235427", "image": "upload/c72fc1a3-80c7-4005-801b-64c44276dddd", "name": "หอยแครงยักษ๋", "name_en": "CHANJIRA", "category": "ร้านอาหาร", "sub_category": "อาหารทะเล"}, "type": "Feature"}, {"geometry": {"coordinates": [98.63401644672834, 9.972036765932643], "type": "Point"}, "properties": {"id": "775b7150f3d5b7a249d27f821e874068", "image": "upload/1415576a-9d7c-4db4-b846-021fd82b9a64", "name": "ชาถังเจ้าคุณ ระนอง", "name_en": "Chatung Jaokhun", "category": "ร้านอาหาร", "sub_category": "ของหวาน ไอศกรีม เบเกอรี่ เครื่องดื่ม"}, "type": "Feature"}, {"geometry": {"coordinates": [98.6441095, 9.9610248], "type": "Point"}, "properties": {"id": "e2f90ae83d77ef65c4685dab909b66af", "image": "upload/75f293ef-1193-42a5-b0a1-f2f24ec3426d", "name": "ร้านน้ำพริกลุงหนุ่ม", "name_en": "Numpriklunknum", "category": "ร้านอาหาร", "sub_category": "อาหารทั่วไป อาหารตามสั่ง อาหารจานเดียว"}, "type": "Feature"}, {"geometry": {"coordinates": [98.634414, 9.958099], "type": "Point"}, "properties": {"id": "3fa9d3a5fd80c1574c0b7bf4dda7d920", "image": "upload/75f293ef-1193-42a5-b0a1-f2f24ec3426d", "name": "ก๋วยเตี๋ยวเรือหม้อดิน", "name_en": "MORDIN", "category": "ร้านอาหาร", "sub_category": "ก๋วยเตี๋ยว ก๋วยจั๊บ"}, "type": "Feature"}, {"geometry": {"coordinates": [100.992538, 15.870032], "type": "Point"}, "properties": {"id": "cdb76b722dcd0418f3869c294a0de216", "image": "upload/75f293ef-1193-42a5-b0a1-f2f24ec3426d", "name": "สราวุธ", "name_en": "", "category": "ร้านค้าธงฟ้า", "sub_category": ""}, "type": "Feature"}, {"geometry": {"coordinates": [100.923577, 15.699876], "type": "Point"}, "properties": {"id": "75d783f0f58b1a4dd17d41c80e3c4c07", "image": "upload/75f293ef-1193-42a5-b0a1-f2f24ec3426d", "name": "ร้านชันชูรีย์", "name_en": "", "category": "ร้านค้าธงฟ้า", "sub_category": ""}, "type": "Feature"}, {"geometry": {"coordinates": [98.419355, 9.375943], "type": "Point"}, "properties": {"id": "2c5e9b815aada18d77cf9b6d93ce32e8", "image": "upload/75f293ef-1193-42a5-b0a1-f2f24ec3426d", "name": "ร้านยารวมพลเภสัชกำพวน", "name_en": "RUAMPHON", "category": "ซุปเปอร์มาร์เก็ต/ขายของใช้/ขายของชำ/มินิมาร์ท/ตลาดสด", "sub_category": "ร้านขายของใช้ / อุปกรณ์"}, "type": "Feature"}, {"geometry": {"coordinates": [98.64503592252731, 9.972897687824512], "type": "Point"}, "properties": {"id": "52a805e3212d7d8e5eb67e6db37b3052", "image": "upload/23d5bff9-bb2c-4f0d-b1bc-77b5dea49bee", "name": "เมษา", "name_en": "MAYSA", "category": "ร้านอาหาร", "sub_category": "อาหารว่าง ขนม ของกินเล่น"}, "type": "Feature"}, {"geometry": {"coordinates": [98.644292, 9.975721], "type": "Point"}, "properties": {"id": "98a4035712adf8b06808eda03e5457a9", "image": "upload/23d5bff9-bb2c-4f0d-b1bc-77b5dea49bee", "name": "อรอนงค์  ของชำ", "name_en": "", "category": "ร้านค้าทั่วไป", "sub_category": ""}, "type": "Feature"}, {"geometry": {"coordinates": [98.630694, 9.960378], "type": "Point"}, "properties": {"id": "9468b1109835676e67eef2fecf5baf65", "image": "upload/23d5bff9-bb2c-4f0d-b1bc-77b5dea49bee", "name": "พี่นุชขายหมู", "name_en": "NUCH", "category": "ซุปเปอร์มาร์เก็ต/ขายของใช้/ขายของชำ/มินิมาร์ท/ตลาดสด", "sub_category": "ตลาดสด"}, "type": "Feature"}, {"geometry": {"coordinates": [98.677228, 9.578298], "type": "Point"}, "properties": {"id": "e67e7d0fc406a1767b00076bc37fac2b", "image": "upload/23d5bff9-bb2c-4f0d-b1bc-77b5dea49bee", "name": "ป๊ะบาร์เบอร์", "name_en": "", "category": "ร้านค้าธงฟ้า", "sub_category": ""}, "type": "Feature"}, {"geometry": {"coordinates": [98.71173, 10.178241], "type": "Point"}, "properties": {"id": "65ab04e86e5904de8d12c13e943bc486", "image": "upload/23d5bff9-bb2c-4f0d-b1bc-77b5dea49bee", "name": "อ้อยทิพย์", "name_en": "", "category": "ร้านค้าธงฟ้า", "sub_category": ""}, "type": "Feature"}, {"geometry": {"coordinates": [98.73726, 10.230798], "type": "Point"}, "properties": {"id": "6c9d47338bd692e2a31bbf0b410a701f", "image": "upload/23d5bff9-bb2c-4f0d-b1bc-77b5dea49bee", "name": "แก้วตาหมูสด", "name_en": "", "category": "ร้านค้าธงฟ้า", "sub_category": ""}, "type": "Feature"}, {"geometry": {"coordinates": [98.623548, 9.897948], "type": "Point"}, "properties": {"id": "e8736ab0b7943935ad0057a9f3d9aba1", "image": "upload/23d5bff9-bb2c-4f0d-b1bc-77b5dea49bee", "name": "ถาหมูปิ้งและยำ", "name_en": "THA", "category": "ร้านอาหาร", "sub_category": "อื่นๆ"}, "type": "Feature"}, {"geometry": {"coordinates": [98.821507, 10.475397], "type": "Point"}, "properties": {"id": "d78e9c83c73e9f10a8e7de53b773d935", "image": "upload/23d5bff9-bb2c-4f0d-b1bc-77b5dea49bee", "name": "ร้านป้าหมี", "name_en": "", "category": "ร้านค้าธงฟ้า", "sub_category": ""}, "type": "Feature"}, {"geometry": {"coordinates": [98.772826, 10.403269], "type": "Point"}, "properties": {"id": "10113e4d4beebd88a714bca4a7f64929", "image": "upload/23d5bff9-bb2c-4f0d-b1bc-77b5dea49bee", "name": "โบนัสผ้ามือสอง", "name_en": "AUMAPORN", "category": "แฟชั่น", "sub_category": "ร้านขายเสื้อผ้า / เครื่องประดับ / สินค้าแฟชั่น"}, "type": "Feature"}, {"geometry": {"coordinates": [98.642, 9.965174], "type": "Point"}, "properties": {"id": "b5018b2c10b0b3d725e6b33dbf3528ce", "image": "upload/bee04061-6f25-4742-b278-09087836bd7d", "name": "ร้านนกเอี้ยง", "name_en": "NokEiyngRanong", "category": "ร้านอาหาร", "sub_category": "อาหารทั่วไป อาหารตามสั่ง อาหารจานเดียว"}, "type": "Feature"}, {"geometry": {"coordinates": [98.302514, 8.092831], "type": "Point"}, "properties": {"id": "52a44e7996986093bf3f37f7fe9a7772", "image": "upload/bee04061-6f25-4742-b278-09087836bd7d", "name": "มาดีนะ ไส้กรอกระนอง", "name_en": "RATTHAKORN", "category": "ซุปเปอร์มาร์เก็ต/ขายของใช้/ขายของชำ/มินิมาร์ท/ตลาดสด", "sub_category": "ตลาดสด"}, "type": "Feature"}, {"geometry": {"coordinates": [98.542113, 9.597725], "type": "Point"}, "properties": {"id": "8990e02d2752e8e4a144a1056d1895fc", "image": "upload/bee04061-6f25-4742-b278-09087836bd7d", "name": "เจซีมาร์ท", "name_en": "JCMART", "category": "ซุปเปอร์มาร์เก็ต/ขายของใช้/ขายของชำ/มินิมาร์ท/ตลาดสด", "sub_category": "มินิมาร์ท / ร้านขายของชำ"}, "type": "Feature"}, {"geometry": {"coordinates": [98.637607, 9.959087], "type": "Point"}, "properties": {"id": "1a99105404d0ee950a43a68ceb1147f5", "image": "upload/b811f78a-564f-4771-a6ab-5caade2f81c3", "name": "นางชนิดาภา  สุขสวัสดิ์", "name_en": "", "category": "ร้านอาหาร", "sub_category": "อาหารทั่วไป อาหารตามสั่ง อาหารจานเดียว"}, "type": "Feature"}, {"geometry": {"coordinates": [98.636053, 9.974527], "type": "Point"}, "properties": {"id": "8bdb80ba0e00a8443b2992d2b72a1803", "image": "upload/b811f78a-564f-4771-a6ab-5caade2f81c3", "name": "ฮาฟิสไก่ทอด", "name_en": "HAFIT", "category": "ร้านอาหาร", "sub_category": "อื่นๆ"}, "type": "Feature"}, {"geometry": {"coordinates": [98.615884, 9.955094], "type": "Point"}, "properties": {"id": "8080b36eb52c108c1ae024d469ba39f5", "image": "upload/b811f78a-564f-4771-a6ab-5caade2f81c3", "name": "วรรณิศา", "name_en": "", "category": "ร้านค้าธงฟ้า", "sub_category": ""}, "type": "Feature"}, {"geometry": {"coordinates": [98.608182, 9.98317], "type": "Point"}, "properties": {"id": "e213cc0324150aad70b8032e52c3ebcb", "image": "upload/b811f78a-564f-4771-a6ab-5caade2f81c3", "name": "ร้านเจ๊สาวเขานางหงส์", "name_en": "", "category": "ร้านค้าธงฟ้า", "sub_category": ""}, "type": "Feature"}, {"geometry": {"coordinates": [98.62964, 9.960428], "type": "Point"}, "properties": {"id": "ffd99e52ed3a368807095b804f5953fb", "image": "upload/b811f78a-564f-4771-a6ab-5caade2f81c3", "name": "เจ้ดำ ผลไม้", "name_en": "PAKAKONG", "category": "ร้านอาหาร", "sub_category": "ร้านขายผลไม้ / ร้านขายผัก"}, "type": "Feature"}, {"geometry": {"coordinates": [98.734564, 10.117468], "type": "Point"}, "properties": {"id": "fd6fa69bd490b72002d3fefe3b7a70b7", "image": "upload/b811f78a-564f-4771-a6ab-5caade2f81c3", "name": "สลินกร เจี้ยมก้วน", "name_en": "SALNKORN", "category": "ซุปเปอร์มาร์เก็ต/ขายของใช้/ขายของชำ/มินิมาร์ท/ตลาดสด", "sub_category": "ร้านขายของใช้ / อุปกรณ์"}, "type": "Feature"}, {"geometry": {"coordinates": [98.595277, 9.797254], "type": "Point"}, "properties": {"id": "47b17703dadbe52347d82ce766466f30", "image": "upload/b811f78a-564f-4771-a6ab-5caade2f81c3", "name": "เจ้แอ๋วคนองตำ", "name_en": "CHANIDAPORN", "category": "ร้านอาหาร", "sub_category": "อาหารทั่วไป อาหารตามสั่ง อาหารจานเดียว"}, "type": "Feature"}, {"geometry": {"coordinates": [98.632751, 9.960117], "type": "Point"}, "properties": {"id": "458bfd97028c5392bfcc4496cdda0a6b", "image": "upload/b811f78a-564f-4771-a6ab-5caade2f81c3", "name": "ร้านตุ๊กตา", "name_en": "TUKTASHOP", "category": "แฟชั่น", "sub_category": "ร้านขายเสื้อผ้า / เครื่องประดับ / สินค้าแฟชั่น"}, "type": "Feature"}, {"geometry": {"coordinates": [99.08836, 10.250416], "type": "Point"}, "properties": {"id": "14077ebea80c6bb7aaf6d51996b21572", "image": "upload/b811f78a-564f-4771-a6ab-5caade2f81c3", "name": "ไก่ไข่สด", "name_en": "KAIKAISOD", "category": "ซุปเปอร์มาร์เก็ต/ขายของใช้/ขายของชำ/มินิมาร์ท/ตลาดสด", "sub_category": "ตลาดสด"}, "type": "Feature"}, {"geometry": {"coordinates": [98.424635, 9.345566], "type": "Point"}, "properties": {"id": "825d877dcc65d89f0893a56cfeb8007d", "image": "upload/b811f78a-564f-4771-a6ab-5caade2f81c3", "name": "ต้ามินิมาร์ท", "name_en": "", "category": "ร้านค้าธงฟ้า", "sub_category": ""}, "type": "Feature"}, {"geometry": {"coordinates": [100.480144, 13.665337], "type": "Point"}, "properties": {"id": "871a460297f5c3653f85c9383aaa200a", "image": "upload/b811f78a-564f-4771-a6ab-5caade2f81c3", "name": "เจ้จ๋าปลานิลนึ่ง", "name_en": "KIT16082544", "category": "ร้านอาหาร", "sub_category": "อาหารทั่วไป อาหารตามสั่ง อาหารจานเดียว"}, "type": "Feature"}, {"geometry": {"coordinates": [98.640215, 9.958403], "type": "Point"}, "properties": {"id": "cbd9d86b454b1d7abbb760f93a79debb", "image": "upload/b811f78a-564f-4771-a6ab-5caade2f81c3", "name": "หม่าล่าซอย 2", "name_en": "MARRA", "category": "ร้านอาหาร", "sub_category": "อาหารว่าง ขนม ของกินเล่น"}, "type": "Feature"}, {"geometry": {"coordinates": [98.63903045654297, 9.956846443476254], "type": "Point"}, "properties": {"id": "64341c5c5de7b3753433233de8abc746", "image": "upload/14cbfa4b-19d9-411f-b5f6-79c9f06d44d9", "name": "จ่าจ้าคอฟฟี่", "name_en": "Jajaa Coffee", "category": "ร้านอาหาร", "sub_category": "ของหวาน ไอศกรีม เบเกอรี่ เครื่องดื่ม"}, "type": "Feature"}, {"geometry": {"coordinates": [98.631253, 9.936127], "type": "Point"}, "properties": {"id": "f419e4274a5607cb6cd11f468d705824", "image": "upload/14cbfa4b-19d9-411f-b5f6-79c9f06d44d9", "name": "วัชรี", "name_en": "", "category": "ร้านค้าธงฟ้า", "sub_category": ""}, "type": "Feature"}, {"geometry": {"coordinates": [98.579963, 9.540438], "type": "Point"}, "properties": {"id": "5a89e3467ae0719104f41197ae65c1d3", "image": "upload/14cbfa4b-19d9-411f-b5f6-79c9f06d44d9", "name": "สุไลมาน", "name_en": "SULAIMARN", "category": "ซุปเปอร์มาร์เก็ต/ขายของใช้/ขายของชำ/มินิมาร์ท/ตลาดสด", "sub_category": "มินิมาร์ท / ร้านขายของชำ"}, "type": "Feature"}, {"geometry": {"coordinates": [98.622073, 9.958475], "type": "Point"}, "properties": {"id": "1e7e7a247a6bbe51b6fc6598ac49cf58", "image": "upload/14cbfa4b-19d9-411f-b5f6-79c9f06d44d9", "name": "พุงกาง", "name_en": "POONGKANG", "category": "ร้านอาหาร", "sub_category": "ของหวาน ไอศกรีม เบเกอรี่ เครื่องดื่ม"}, "type": "Feature"}, {"geometry": {"coordinates": [98.632949, 9.959263], "type": "Point"}, "properties": {"id": "85d5958d89ec39802215f08c2d2ae048", "image": "upload/14cbfa4b-19d9-411f-b5f6-79c9f06d44d9", "name": "เทอดไทย", "name_en": "TERDTHAI", "category": "แฟชั่น", "sub_category": "ร้านขายเสื้อผ้า / เครื่องประดับ / สินค้าแฟชั่น"}, "type": "Feature"}, {"geometry": {"coordinates": [98.6508338, 9.9589579], "type": "Point"}, "properties": {"id": "7887633a0a04cd5d81d796dae71d16cd", "image": "upload/fbddf7e0-65b1-4066-9697-449b49fc8a4f", "name": "ร้านอาหารคุ้นลิ้น", "name_en": "Kunlin Restaurnat", "category": "ร้านอาหาร", "sub_category": "อาหารทั่วไป อาหารตามสั่ง อาหารจานเดียว"}, "type": "Feature"}, {"geometry": {"coordinates": [98.624418, 9.962702], "type": "Point"}, "properties": {"id": "bbad1076e12a7beb9aa014546e2bbf46", "image": "upload/fbddf7e0-65b1-4066-9697-449b49fc8a4f", "name": "ยามเย็นชาบู แอนด์กิลด์", "name_en": "", "category": "ร้านอาหาร/เครื่องดื่ม", "sub_category": ""}, "type": "Feature"}, {"geometry": {"coordinates": [98.595914, 9.847614], "type": "Point"}, "properties": {"id": "e97bb9d7a9ffe98b081ae2b8d16aebbb", "image": "upload/fbddf7e0-65b1-4066-9697-449b49fc8a4f", "name": "ร้านจ๊ะแอ๋ว", "name_en": "JAEAW", "category": "ร้านอาหาร", "sub_category": "ก๋วยเตี๋ยว ก๋วยจั๊บ"}, "type": "Feature"}, {"geometry": {"coordinates": [98.637386, 9.973901], "type": "Point"}, "properties": {"id": "f217b59f7ba5b5c9b6dbb26d90ff35ca", "image": "upload/fbddf7e0-65b1-4066-9697-449b49fc8a4f", "name": "ธัญญธร พรพงษ์", "name_en": "BABYANDMOM", "category": "ซุปเปอร์มาร์เก็ต/ขายของใช้/ขายของชำ/มินิมาร์ท/ตลาดสด", "sub_category": "ร้านขายของใช้ / อุปกรณ์"}, "type": "Feature"}, {"geometry": {"coordinates": [98.648657, 10.012512], "type": "Point"}, "properties": {"id": "23ad80e3c6938b1a242ce748fada8fb1", "image": "upload/a60daa8e-b6b6-4d28-9753-e993e13457ec", "name": "เครปป้าแตน", "name_en": "Crepepatan", "category": "ร้านอาหาร", "sub_category": "ของหวาน ไอศกรีม เบเกอรี่ เครื่องดื่ม"}, "type": "Feature"}, {"geometry": {"coordinates": [98.634273, 9.964229], "type": "Point"}, "properties": {"id": "03f75ddc9f588ecc5d3a6c5201ac2bb5", "image": "upload/a60daa8e-b6b6-4d28-9753-e993e13457ec", "name": "สุภาพร ศรีโพธิ์", "name_en": "SUPAPORN", "category": "ซุปเปอร์มาร์เก็ต/ขายของใช้/ขายของชำ/มินิมาร์ท/ตลาดสด", "sub_category": "มินิมาร์ท / ร้านขายของชำ"}, "type": "Feature"}, {"geometry": {"coordinates": [98.63475, 9.956851], "type": "Point"}, "properties": {"id": "daa309340135db141548e1f385d8d047", "image": "upload/a60daa8e-b6b6-4d28-9753-e993e13457ec", "name": "พรดอกไม้สดรวย", "name_en": "PORNFLOWER", "category": "ซุปเปอร์มาร์เก็ต/ขายของใช้/ขายของชำ/มินิมาร์ท/ตลาดสด", "sub_category": "ตลาดสด"}, "type": "Feature"}, {"geometry": {"coordinates": [98.632762, 9.960161], "type": "Point"}, "properties": {"id": "6982cab911af3821ab2012c12139de5c", "image": "upload/a60daa8e-b6b6-4d28-9753-e993e13457ec", "name": "อังคณา ปทุมทอง", "name_en": "AUNGKANAPATHUMTHONG", "category": "ร้านอาหาร", "sub_category": "ของหวาน ไอศกรีม เบเกอรี่ เครื่องดื่ม"}, "type": "Feature"}, {"geometry": {"coordinates": [98.54496001999998, 9.530566209999996], "type": "Point"}, "properties": {"id": "9aff6ae27dc9acf7fcd0da0f8eba1934", "image": "upload/b4af8f9c-41d3-4e57-a234-b5648df530d8", "name": "สวนลุงวร ระนอง แกลมป์ปิ้ง", "name_en": "Suan Lung Vorn Ranong Glamping", "category": "ร้านอาหาร", "sub_category": "อื่นๆ"}, "type": "Feature"}, {"geometry": {"coordinates": [98.632892, 9.958538], "type": "Point"}, "properties": {"id": "aedb67f7491961962a845fbb29ac5cc0", "image": "upload/b4af8f9c-41d3-4e57-a234-b5648df530d8", "name": "สุจิตรา ธนบัตร", "name_en": "SUJITTRA", "category": "ร้านอาหาร", "sub_category": "ของหวาน ไอศกรีม เบเกอรี่ เครื่องดื่ม"}, "type": "Feature"}, {"geometry": {"coordinates": [98.599678, 9.573346], "type": "Point"}, "properties": {"id": "9dd2ecbafa98a3305b0ee8d4e9a4bffe", "image": "upload/b4af8f9c-41d3-4e57-a234-b5648df530d8", "name": "นารี แสงทองมินิมาร์ท", "name_en": "", "category": "ร้านค้าธงฟ้า", "sub_category": ""}, "type": "Feature"}, {"geometry": {"coordinates": [98.714821, 10.179457], "type": "Point"}, "properties": {"id": "4e6b847332c257dc8962d3509134b001", "image": "upload/b4af8f9c-41d3-4e57-a234-b5648df530d8", "name": "ชำเนือง", "name_en": "", "category": "ร้านค้าธงฟ้า", "sub_category": ""}, "type": "Feature"}, {"geometry": {"coordinates": [98.817106, 10.494225], "type": "Point"}, "properties": {"id": "01f889f15981a0e939313c10d99140e5", "image": "upload/01fb0e8b-7ed2-4cff-9d70-5486859c1240", "name": "พงษ์ศักดิ์ ทวีสิน", "name_en": "PONGSAKTHAWISIN", "category": "ซุปเปอร์มาร์เก็ต/ขายของใช้/ขายของชำ/มินิมาร์ท/ตลาดสด", "sub_category": "มินิมาร์ท / ร้านขายของชำ"}, "type": "Feature"}, {"geometry": {"coordinates": [100.437181, 13.657466], "type": "Point"}, "properties": {"id": "5c59a697e61f0cf3e39560c2e8671b3d", "image": "upload/01fb0e8b-7ed2-4cff-9d70-5486859c1240", "name": "จามจุรี กำพวน", "name_en": "JAMCHUREE", "category": "ร้านอาหาร", "sub_category": "อาหารทะเล"}, "type": "Feature"}, {"geometry": {"coordinates": [98.770223, 10.306525], "type": "Point"}, "properties": {"id": "df4a57d598cca4f391b6ce5e5576490c", "image": "upload/01fb0e8b-7ed2-4cff-9d70-5486859c1240", "name": "มิ้นโฮมซาบะย่าง", "name_en": "DARUNEE", "category": "ร้านอาหาร", "sub_category": "ของหวาน ไอศกรีม เบเกอรี่ เครื่องดื่ม"}, "type": "Feature"}, {"geometry": {"coordinates": [98.77428, 10.401936], "type": "Point"}, "properties": {"id": "bf526b077d3fe2ca9921f4a6752f102b", "image": "upload/01fb0e8b-7ed2-4cff-9d70-5486859c1240", "name": "สุวภาคย์", "name_en": "", "category": "ร้านค้าธงฟ้า", "sub_category": ""}, "type": "Feature"}, {"geometry": {"coordinates": [100.992538, 15.870032], "type": "Point"}, "properties": {"id": "2afa112d0012d937abd6e12c8453fa1c", "image": "upload/01fb0e8b-7ed2-4cff-9d70-5486859c1240", "name": "ส้มตำเทศบาล", "name_en": "", "category": "ร้านค้าธงฟ้า", "sub_category": ""}, "type": "Feature"}, {"geometry": {"coordinates": [98.64610612392426, 9.970781695071167], "type": "Point"}, "properties": {"id": "f0a053d78437b74ef622426d11fea425", "image": "upload/162e7bf8-249a-49bb-8f17-952551565d28", "name": "ร้านเจ้แป้ว ข้าวราดแกงรสเด็ด", "name_en": "Jepaw", "category": "ร้านอาหาร", "sub_category": "อาหารทั่วไป อาหารตามสั่ง อาหารจานเดียว"}, "type": "Feature"}, {"geometry": {"coordinates": [98.81537, 10.486559], "type": "Point"}, "properties": {"id": "7e3cfcad71e4e0e1860074ad54946b2c", "image": "upload/162e7bf8-249a-49bb-8f17-952551565d28", "name": "เจ๊ต่อยซาลาเปาทับหลี", "name_en": "DUSRUEDEE", "category": "ร้านอาหาร", "sub_category": "อาหารว่าง ขนม ของกินเล่น"}, "type": "Feature"}, {"geometry": {"coordinates": [98.41849, 9.374391], "type": "Point"}, "properties": {"id": "bbd890b38f47c098569ec91f521edda5", "image": "upload/162e7bf8-249a-49bb-8f17-952551565d28", "name": "ร้านอันนา ช็อป", "name_en": "UNNA", "category": "ซุปเปอร์มาร์เก็ต/ขายของใช้/ขายของชำ/มินิมาร์ท/ตลาดสด", "sub_category": "ร้านขายของใช้ / อุปกรณ์"}, "type": "Feature"}, {"geometry": {"coordinates": [98.63856567904119, 9.976158052802896], "type": "Point"}, "properties": {"id": "bab5b9c7ccf80752e4bc0e2472f84023", "image": "upload/fd02ad6b-9b9e-4d66-8a73-15a46316c460", "name": "กัตโตะชา", "name_en": "Gatto Cha", "category": "ร้านอาหาร", "sub_category": "ของหวาน ไอศกรีม เบเกอรี่ เครื่องดื่ม"}, "type": "Feature"}, {"geometry": {"coordinates": [98.635935, 9.974527], "type": "Point"}, "properties": {"id": "f945aacb50854687c75b128dfe10ea1b", "image": "upload/fd02ad6b-9b9e-4d66-8a73-15a46316c460", "name": "เบญจมาศ ของชำ", "name_en": "BENCHAMATSHOP", "category": "ซุปเปอร์มาร์เก็ต/ขายของใช้/ขายของชำ/มินิมาร์ท/ตลาดสด", "sub_category": "มินิมาร์ท / ร้านขายของชำ"}, "type": "Feature"}, {"geometry": {"coordinates": [98.6266275, 9.9542345], "type": "Point"}, "properties": {"id": "ae2a506d290fa627a1b9042996aa2b16", "image": "upload/4e098fcf-d4cf-4c0a-b2ca-b7f084a01c04", "name": "ลุงชัย ข้าวแกงซอย 7", "name_en": "Lungchaisoi7", "category": "ร้านอาหาร", "sub_category": "อาหารทั่วไป อาหารตามสั่ง อาหารจานเดียว"}, "type": "Feature"}, {"geometry": {"coordinates": [98.633035, 9.960397], "type": "Point"}, "properties": {"id": "1bad5e5261284d4b54b7789503c24f08", "image": "upload/4e098fcf-d4cf-4c0a-b2ca-b7f084a01c04", "name": "สุภาพร นวลประดิษฐ์", "name_en": "PORNSUPEE", "category": "ซุปเปอร์มาร์เก็ต/ขายของใช้/ขายของชำ/มินิมาร์ท/ตลาดสด", "sub_category": "มินิมาร์ท / ร้านขายของชำ"}, "type": "Feature"}, {"geometry": {"coordinates": [98.416674, 9.373192], "type": "Point"}, "properties": {"id": "5a7cd9757f1e24a33557f1cd0b28b8c5", "image": "upload/4e098fcf-d4cf-4c0a-b2ca-b7f084a01c04", "name": "รัตนา", "name_en": "", "category": "ร้านค้าธงฟ้า", "sub_category": ""}, "type": "Feature"}, {"geometry": {"coordinates": [98.636995, 9.955115], "type": "Point"}, "properties": {"id": "0f677e95cbe8cf2a007de4e739cd6142", "image": "upload/4e098fcf-d4cf-4c0a-b2ca-b7f084a01c04", "name": "ร้านลูกชิ้นอามีน", "name_en": "AREEMEN", "category": "ร้านอาหาร", "sub_category": "อาหารว่าง ขนม ของกินเล่น"}, "type": "Feature"}, {"geometry": {"coordinates": [98.418755, 9.375573], "type": "Point"}, "properties": {"id": "5486fdeeb79b62346818ca780adb6095", "image": "upload/4e098fcf-d4cf-4c0a-b2ca-b7f084a01c04", "name": "รองเท้า", "name_en": "THEERADAR", "category": "แฟชั่น", "sub_category": "ร้านขายเสื้อผ้า / เครื่องประดับ / สินค้าแฟชั่น"}, "type": "Feature"}, {"geometry": {"coordinates": [98.422475, 9.37778], "type": "Point"}, "properties": {"id": "9c17bb9b86a45f20d7a0b4e08d848fef", "image": "upload/4e098fcf-d4cf-4c0a-b2ca-b7f084a01c04", "name": "ส.เกษตรกิจ", "name_en": "", "category": "ร้านค้าธงฟ้า", "sub_category": ""}, "type": "Feature"}, {"geometry": {"coordinates": [98.625432, 9.962221], "type": "Point"}, "properties": {"id": "4338529b4ca83aaa06084ff46f8c2cc1", "image": "upload/4e098fcf-d4cf-4c0a-b2ca-b7f084a01c04", "name": "พี่นิด ขายหมู", "name_en": "PEENID", "category": "ซุปเปอร์มาร์เก็ต/ขายของใช้/ขายของชำ/มินิมาร์ท/ตลาดสด", "sub_category": "ตลาดสด"}, "type": "Feature"}, {"geometry": {"coordinates": [98.632903, 9.95854], "type": "Point"}, "properties": {"id": "fe26f1d243f1f1f808ca96fb709fcb48", "image": "upload/4e098fcf-d4cf-4c0a-b2ca-b7f084a01c04", "name": "ร้านรุจิรา", "name_en": "", "category": "ร้านค้าท้องถิ่น/ผลิตภัณฑ์ชุมชน/OTOP", "sub_category": ""}, "type": "Feature"}, {"geometry": {"coordinates": [98.638798, 9.97234], "type": "Point"}, "properties": {"id": "4600459e0f7ac7b57a32d7eb6bc5d29d", "image": "upload/4599d88f-19b1-4aa8-9551-1130985bca69", "name": "ร้านโชกุล", "name_en": "Shogun", "category": "ร้านอาหาร", "sub_category": "อาหารทั่วไป อาหารตามสั่ง อาหารจานเดียว"}, "type": "Feature"}, {"geometry": {"coordinates": [98.631253, 9.936127], "type": "Point"}, "properties": {"id": "f419e4274a5607cb6cd11f468d705824", "image": "upload/4599d88f-19b1-4aa8-9551-1130985bca69", "name": "วัชรี", "name_en": "", "category": "ร้านค้าธงฟ้า", "sub_category": ""}, "type": "Feature"}, {"geometry": {"coordinates": [98.589667, 9.860042], "type": "Point"}, "properties": {"id": "5b3387278a86f5c221e1cec96f6a8e41", "image": "upload/4599d88f-19b1-4aa8-9551-1130985bca69", "name": "ชนมน", "name_en": "", "category": "งานบริการอื่นๆ / เบ็ดเตล็ด", "sub_category": "สินค้า และ บริการ เกี่ยวกับการตกแต่งบ้าน"}, "type": "Feature"}, {"geometry": {"coordinates": [98.6454, 9.995879], "type": "Point"}, "properties": {"id": "c5fe2415e465870cc585ddf3fddb6e7f", "image": "upload/4599d88f-19b1-4aa8-9551-1130985bca69", "name": "ร้านส้มซ่าส์", "name_en": "SOMZA", "category": "ซุปเปอร์มาร์เก็ต/ขายของใช้/ขายของชำ/มินิมาร์ท/ตลาดสด", "sub_category": "มินิมาร์ท / ร้านขายของชำ"}, "type": "Feature"}, {"geometry": {"coordinates": [98.62770080566406, 9.961807725470159], "type": "Point"}, "properties": {"id": "50e7965a31c5ba66ebdf6546d7e63d5a", "image": "upload/4d09ef6b-b3ba-494f-989a-8cae59c5aa78", "name": "เฮง เฮง ซีฟู๊ด แอนด์ สุกี้", "name_en": "Heng Heng Seafood and Suki", "category": "ร้านอาหาร", "sub_category": "อาหารทะเล"}, "type": "Feature"}, {"geometry": {"coordinates": [98.46703, 9.427225], "type": "Point"}, "properties": {"id": "0fffa6b540a577f0bace4af2d91fbf97", "image": "upload/4d09ef6b-b3ba-494f-989a-8cae59c5aa78", "name": "โก้เก๋", "name_en": "", "category": "ร้านค้าธงฟ้า", "sub_category": ""}, "type": "Feature"}, {"geometry": {"coordinates": [98.64635825157166, 9.967149340897642], "type": "Point"}, "properties": {"id": "6de6efc76e2dbb9dee8f178be34ffcfe", "image": "upload/122a4efb-a03a-42e7-8520-8e9a0aa1dc13", "name": "มาตะ คาเฟ่ สตอร์ แอนด์ อาร์ทสเปซ", "name_en": "Mata Cafe - Store & Artspace", "category": "ร้านอาหาร", "sub_category": "ของหวาน ไอศกรีม เบเกอรี่ เครื่องดื่ม"}, "type": "Feature"}, {"geometry": {"coordinates": [98.867556, 10.692788], "type": "Point"}, "properties": {"id": "c875c1eed5d7c1c58e2351d23fbd847b", "image": "upload/122a4efb-a03a-42e7-8520-8e9a0aa1dc13", "name": "เจษณี", "name_en": "", "category": "ร้านค้าธงฟ้า", "sub_category": ""}, "type": "Feature"}, {"geometry": {"coordinates": [98.690901, 9.954045], "type": "Point"}, "properties": {"id": "46f81bd332d8ab68ad5d85972278f56c", "image": "upload/122a4efb-a03a-42e7-8520-8e9a0aa1dc13", "name": "ร้านอาหารติ๋ม", "name_en": "", "category": "ร้านค้าธงฟ้า", "sub_category": ""}, "type": "Feature"}, {"geometry": {"coordinates": [98.631, 9.9564049], "type": "Point"}, "properties": {"id": "a09db69f2cea2a45b64a86aaaed56e33", "image": "upload/2bd5f35f-d6ef-47e7-85f9-819440ab6742", "name": "ร้านคุณยายปุ๊", "name_en": "Kun Yay Phu", "category": "ร้านอาหาร", "sub_category": "ก๋วยเตี๋ยว ก๋วยจั๊บ"}, "type": "Feature"}, {"geometry": {"coordinates": [98.592482, 9.585972], "type": "Point"}, "properties": {"id": "cbd2da7d02c03a19749a9a1b7ef875bf", "image": "upload/2bd5f35f-d6ef-47e7-85f9-819440ab6742", "name": "ณัฐริกา สุขเกษม", "name_en": "NATTARIKA", "category": "ร้านอาหาร", "sub_category": "ของหวาน ไอศกรีม เบเกอรี่ เครื่องดื่ม"}, "type": "Feature"}, {"geometry": {"coordinates": [98.637386, 9.973901], "type": "Point"}, "properties": {"id": "f217b59f7ba5b5c9b6dbb26d90ff35ca", "image": "upload/2bd5f35f-d6ef-47e7-85f9-819440ab6742", "name": "ธัญญธร พรพงษ์", "name_en": "BABYANDMOM", "category": "ซุปเปอร์มาร์เก็ต/ขายของใช้/ขายของชำ/มินิมาร์ท/ตลาดสด", "sub_category": "ร้านขายของใช้ / อุปกรณ์"}, "type": "Feature"}, {"geometry": {"coordinates": [98.648657, 10.012512], "type": "Point"}, "properties": {"id": "23ad80e3c6938b1a242ce748fada8fb1", "image": "upload/a60daa8e-b6b6-4d28-9753-e993e13457ec", "name": "เครปป้าแตน", "name_en": "Crepepatan", "category": "ร้านอาหาร", "sub_category": "ของหวาน ไอศกรีม เบเกอรี่ เครื่องดื่ม"}, "type": "Feature"}, {"geometry": {"coordinates": [98.625292, 9.961943], "type": "Point"}, "properties": {"id": "8603ba04d7e8c2db33011e64b3b489c7", "image": "upload/a60daa8e-b6b6-4d28-9753-e993e13457ec", "name": "ร้านอาหารนิมะห์", "name_en": "NIMA", "category": "ร้านอาหาร", "sub_category": "อาหารมุสลิม อิสลาม"}, "type": "Feature"}, {"geometry": {"coordinates": [98.579963, 9.540438], "type": "Point"}, "properties": {"id": "5a89e3467ae0719104f41197ae65c1d3", "image": "upload/a60daa8e-b6b6-4d28-9753-e993e13457ec", "name": "สุไลมาน", "name_en": "SULAIMARN", "category": "ซุปเปอร์มาร์เก็ต/ขายของใช้/ขายของชำ/มินิมาร์ท/ตลาดสด", "sub_category": "มินิมาร์ท / ร้านขายของชำ"}, "type": "Feature"}, {"geometry": {"coordinates": [98.634318, 9.964308], "type": "Point"}, "properties": {"id": "f2bce523dbbb4cf97bc5fe0b3f01f155", "image": "upload/a60daa8e-b6b6-4d28-9753-e993e13457ec", "name": "เจ้เพ็ญ ข้าวราดแกง", "name_en": "SURAPHOL", "category": "ร้านอาหาร", "sub_category": "อาหารทั่วไป อาหารตามสั่ง อาหารจานเดียว"}, "type": "Feature"}, {"geometry": {"coordinates": [98.622073, 9.958475], "type": "Point"}, "properties": {"id": "1e7e7a247a6bbe51b6fc6598ac49cf58", "image": "upload/a60daa8e-b6b6-4d28-9753-e993e13457ec", "name": "พุงกาง", "name_en": "POONGKANG", "category": "ร้านอาหาร", "sub_category": "ของหวาน ไอศกรีม เบเกอรี่ เครื่องดื่ม"}, "type": "Feature"}, {"geometry": {"coordinates": [98.63475, 9.956851], "type": "Point"}, "properties": {"id": "daa309340135db141548e1f385d8d047", "image": "upload/a60daa8e-b6b6-4d28-9753-e993e13457ec", "name": "พรดอกไม้สดรวย", "name_en": "PORNFLOWER", "category": "ซุปเปอร์มาร์เก็ต/ขายของใช้/ขายของชำ/มินิมาร์ท/ตลาดสด", "sub_category": "ตลาดสด"}, "type": "Feature"}, {"geometry": {"coordinates": [99.163454, 11.146087], "type": "Point"}, "properties": {"id": "fea5045cd653771bc52808d713e39217", "image": "upload/a60daa8e-b6b6-4d28-9753-e993e13457ec", "name": "น้องเวียร์ช้อป", "name_en": "", "category": "ร้านค้าธงฟ้า", "sub_category": ""}, "type": "Feature"}, {"geometry": {"coordinates": [98.632762, 9.960161], "type": "Point"}, "properties": {"id": "6982cab911af3821ab2012c12139de5c", "image": "upload/a60daa8e-b6b6-4d28-9753-e993e13457ec", "name": "อังคณา ปทุมทอง", "name_en": "AUNGKANAPATHUMTHONG", "category": "ร้านอาหาร", "sub_category": "ของหวาน ไอศกรีม เบเกอรี่ เครื่องดื่ม"}, "type": "Feature"}, {"geometry": {"coordinates": [98.62849439327968, 9.957791709759437], "type": "Point"}, "properties": {"id": "ef9bd0f8679a6bd6fff53436fa4f3f26", "image": "upload/5bbca5f9-0972-4359-8fdf-d2baf2a4c067", "name": "กระพรุนลวกจิ้ม", "name_en": "Karpurn Luakjim", "category": "ร้านอาหาร", "sub_category": "อาหารทั่วไป อาหารตามสั่ง อาหารจานเดียว"}, "type": "Feature"}, {"geometry": {"coordinates": [98.703621, 9.568485], "type": "Point"}, "properties": {"id": "a5aff6d44e2676f594276a11a454014a", "image": "upload/5bbca5f9-0972-4359-8fdf-d2baf2a4c067", "name": "ทวีพาณิชย์", "name_en": "", "category": "ร้านค้าธงฟ้า", "sub_category": ""}, "type": "Feature"}, {"geometry": {"coordinates": [98.60141515731812, 9.987130750020036], "type": "Point"}, "properties": {"id": "e42099acdcdbb0ee7a5d7701d0f45fb1", "image": "upload/95b58b61-972c-4d51-8a5a-40f4218d44db", "name": "ปากน้ำซีฟู้ด", "name_en": "Parknam Seafood", "category": "ร้านอาหาร", "sub_category": "อาหารทะเล"}, "type": "Feature"}, {"geometry": {"coordinates": [98.603582, 9.850579], "type": "Point"}, "properties": {"id": "945a3c26255c30bc064e134f92713e72", "image": "upload/95b58b61-972c-4d51-8a5a-40f4218d44db", "name": "เอโกะ", "name_en": "", "category": "ร้านค้าธงฟ้า", "sub_category": ""}, "type": "Feature"}, {"geometry": {"coordinates": [98.630014, 9.960801], "type": "Point"}, "properties": {"id": "4741a66507074961d408559ab393806c", "image": "upload/95b58b61-972c-4d51-8a5a-40f4218d44db", "name": "พี่ยัน ขายผัก", "name_en": "PEEYANSHOP", "category": "ซุปเปอร์มาร์เก็ต/ขายของใช้/ขายของชำ/มินิมาร์ท/ตลาดสด", "sub_category": "ตลาดสด"}, "type": "Feature"}, {"geometry": {"coordinates": [98.644042, 9.966221], "type": "Point"}, "properties": {"id": "f6d109e1304f57b09cb00727e08f6131", "image": "upload/95b58b61-972c-4d51-8a5a-40f4218d44db", "name": "เฉาก๊วยเต็งหนึ่ง", "name_en": "TANGNUENG", "category": "ร้านอาหาร", "sub_category": "ของหวาน ไอศกรีม เบเกอรี่ เครื่องดื่ม"}, "type": "Feature"}, {"geometry": {"coordinates": [98.625292, 9.961943], "type": "Point"}, "properties": {"id": "8603ba04d7e8c2db33011e64b3b489c7", "image": "upload/95b58b61-972c-4d51-8a5a-40f4218d44db", "name": "ร้านอาหารนิมะห์", "name_en": "NIMA", "category": "ร้านอาหาร", "sub_category": "อาหารมุสลิม อิสลาม"}, "type": "Feature"}, {"geometry": {"coordinates": [99.163454, 11.146087], "type": "Point"}, "properties": {"id": "fea5045cd653771bc52808d713e39217", "image": "upload/95b58b61-972c-4d51-8a5a-40f4218d44db", "name": "น้องเวียร์ช้อป", "name_en": "", "category": "ร้านค้าธงฟ้า", "sub_category": ""}, "type": "Feature"}, {"geometry": {"coordinates": [98.585882, 9.852016], "type": "Point"}, "properties": {"id": "15ea2f45bf3029d60bc5ce7040215a6e", "image": "upload/95b58b61-972c-4d51-8a5a-40f4218d44db", "name": "บิ๊กบอย", "name_en": "BIGBOY", "category": "ซุปเปอร์มาร์เก็ต/ขายของใช้/ขายของชำ/มินิมาร์ท/ตลาดสด", "sub_category": "มินิมาร์ท / ร้านขายของชำ"}, "type": "Feature"}, {"geometry": {"coordinates": [98.634318, 9.964308], "type": "Point"}, "properties": {"id": "f2bce523dbbb4cf97bc5fe0b3f01f155", "image": "upload/95b58b61-972c-4d51-8a5a-40f4218d44db", "name": "เจ้เพ็ญ ข้าวราดแกง", "name_en": "SURAPHOL", "category": "ร้านอาหาร", "sub_category": "อาหารทั่วไป อาหารตามสั่ง อาหารจานเดียว"}, "type": "Feature"}, {"geometry": {"coordinates": [98.61188650131226, 9.953279980112459], "type": "Point"}, "properties": {"id": "eddd332a1412333c360e226da6f3e2fb", "image": "upload/09326f63-36ee-4e79-9335-0277b4bec8d2", "name": "บ้านรักขนม", "name_en": "baan-luck-kanom", "category": "ร้านอาหาร", "sub_category": "อาหารทั่วไป อาหารตามสั่ง อาหารจานเดียว"}, "type": "Feature"}, {"geometry": {"coordinates": [98.64071488380432, 9.969135913431506], "type": "Point"}, "properties": {"id": "d4edc0a8d1b2e7874dbdaea67c2fbb2c", "image": "upload/575ac1f3-df83-46bc-814c-8ea50de05d18", "name": "ครัวดอกคูณ", "name_en": "Dork Koon ", "category": "ร้านอาหาร", "sub_category": "ร้านอาหารอีสาน"}, "type": "Feature"}, {"geometry": {"coordinates": [98.579963, 9.540438], "type": "Point"}, "properties": {"id": "5a89e3467ae0719104f41197ae65c1d3", "image": "upload/575ac1f3-df83-46bc-814c-8ea50de05d18", "name": "สุไลมาน", "name_en": "SULAIMARN", "category": "ซุปเปอร์มาร์เก็ต/ขายของใช้/ขายของชำ/มินิมาร์ท/ตลาดสด", "sub_category": "มินิมาร์ท / ร้านขายของชำ"}, "type": "Feature"}, {"geometry": {"coordinates": [98.622073, 9.958475], "type": "Point"}, "properties": {"id": "1e7e7a247a6bbe51b6fc6598ac49cf58", "image": "upload/575ac1f3-df83-46bc-814c-8ea50de05d18", "name": "พุงกาง", "name_en": "POONGKANG", "category": "ร้านอาหาร", "sub_category": "ของหวาน ไอศกรีม เบเกอรี่ เครื่องดื่ม"}, "type": "Feature"}, {"geometry": {"coordinates": [98.632949, 9.959263], "type": "Point"}, "properties": {"id": "85d5958d89ec39802215f08c2d2ae048", "image": "upload/575ac1f3-df83-46bc-814c-8ea50de05d18", "name": "เทอดไทย", "name_en": "TERDTHAI", "category": "แฟชั่น", "sub_category": "ร้านขายเสื้อผ้า / เครื่องประดับ / สินค้าแฟชั่น"}, "type": "Feature"}, {"geometry": {"coordinates": [98.6508338, 9.9589579], "type": "Point"}, "properties": {"id": "7887633a0a04cd5d81d796dae71d16cd", "image": "upload/fbddf7e0-65b1-4066-9697-449b49fc8a4f", "name": "ร้านอาหารคุ้นลิ้น", "name_en": "Kunlin Restaurnat", "category": "ร้านอาหาร", "sub_category": "อาหารทั่วไป อาหารตามสั่ง อาหารจานเดียว"}, "type": "Feature"}, {"geometry": {"coordinates": [98.624418, 9.962702], "type": "Point"}, "properties": {"id": "bbad1076e12a7beb9aa014546e2bbf46", "image": "upload/fbddf7e0-65b1-4066-9697-449b49fc8a4f", "name": "ยามเย็นชาบู แอนด์กิลด์", "name_en": "", "category": "ร้านอาหาร/เครื่องดื่ม", "sub_category": ""}, "type": "Feature"}, {"geometry": {"coordinates": [98.595914, 9.847614], "type": "Point"}, "properties": {"id": "e97bb9d7a9ffe98b081ae2b8d16aebbb", "image": "upload/fbddf7e0-65b1-4066-9697-449b49fc8a4f", "name": "ร้านจ๊ะแอ๋ว", "name_en": "JAEAW", "category": "ร้านอาหาร", "sub_category": "ก๋วยเตี๋ยว ก๋วยจั๊บ"}, "type": "Feature"}, {"geometry": {"coordinates": [98.599678, 9.573346], "type": "Point"}, "properties": {"id": "9dd2ecbafa98a3305b0ee8d4e9a4bffe", "image": "upload/fbddf7e0-65b1-4066-9697-449b49fc8a4f", "name": "นารี แสงทองมินิมาร์ท", "name_en": "", "category": "ร้านค้าธงฟ้า", "sub_category": ""}, "type": "Feature"}, {"geometry": {"coordinates": [98.632892, 9.958538], "type": "Point"}, "properties": {"id": "aedb67f7491961962a845fbb29ac5cc0", "image": "upload/fbddf7e0-65b1-4066-9697-449b49fc8a4f", "name": "สุจิตรา ธนบัตร", "name_en": "SUJITTRA", "category": "ร้านอาหาร", "sub_category": "ของหวาน ไอศกรีม เบเกอรี่ เครื่องดื่ม"}, "type": "Feature"}, {"geometry": {"coordinates": [98.60141515731812, 9.987130750020036], "type": "Point"}, "properties": {"id": "e42099acdcdbb0ee7a5d7701d0f45fb1", "image": "upload/95b58b61-972c-4d51-8a5a-40f4218d44db", "name": "ปากน้ำซีฟู้ด", "name_en": "Parknam Seafood", "category": "ร้านอาหาร", "sub_category": "อาหารทะเล"}, "type": "Feature"}, {"geometry": {"coordinates": [98.62849439327968, 9.957791709759437], "type": "Point"}, "properties": {"id": "ef9bd0f8679a6bd6fff53436fa4f3f26", "image": "upload/5bbca5f9-0972-4359-8fdf-d2baf2a4c067", "name": "กระพรุนลวกจิ้ม", "name_en": "Karpurn Luakjim", "category": "ร้านอาหาร", "sub_category": "อาหารทั่วไป อาหารตามสั่ง อาหารจานเดียว"}, "type": "Feature"}, {"geometry": {"coordinates": [98.628299, 9.966964], "type": "Point"}, "properties": {"id": "6cbcf99f0db4aa294044da7298668280", "image": "upload/5bbca5f9-0972-4359-8fdf-d2baf2a4c067", "name": "ร้านป้าหมวย", "name_en": "", "category": "ร้านค้าธงฟ้า", "sub_category": ""}, "type": "Feature"}, {"geometry": {"coordinates": [98.606963, 9.952016], "type": "Point"}, "properties": {"id": "290a66c047a4f185b66ac8025fada9aa", "image": "upload/5bbca5f9-0972-4359-8fdf-d2baf2a4c067", "name": "พี่หญิงข้าวหมูทอด", "name_en": "YING", "category": "ร้านอาหาร", "sub_category": "อาหารทั่วไป อาหารตามสั่ง อาหารจานเดียว"}, "type": "Feature"}, {"geometry": {"coordinates": [98.6456823348999, 9.972570119308383], "type": "Point"}, "properties": {"id": "e29d8aedc2f273a7fff4c8b672e1b988", "image": "upload/e2ff5407-fd06-446b-b7c4-a04189dfd4b8", "name": "ร้านวิมลรัตน์ของฝาก", "name_en": "Wimonrat", "category": "ร้านอาหาร", "sub_category": "อื่นๆ"}, "type": "Feature"}, {"geometry": {"coordinates": [98.416521, 9.373864], "type": "Point"}, "properties": {"id": "70d97adc683d579428f4467a013acebc", "image": "upload/e2ff5407-fd06-446b-b7c4-a04189dfd4b8", "name": "ร้านแสะบ๋ากำพวน", "name_en": "", "category": "ร้านค้าธงฟ้า", "sub_category": ""}, "type": "Feature"}, {"geometry": {"coordinates": [98.619256, 9.853832], "type": "Point"}, "properties": {"id": "87e836cdef4c95a8e790600a9ab7ab0b", "image": "upload/e2ff5407-fd06-446b-b7c4-a04189dfd4b8", "name": "ขนมครกชาววัง BY มามา", "name_en": "NUREEHAN", "category": "ร้านอาหาร", "sub_category": "อาหารว่าง ขนม ของกินเล่น"}, "type": "Feature"}, {"geometry": {"coordinates": [98.54496001999998, 9.530566209999996], "type": "Point"}, "properties": {"id": "9aff6ae27dc9acf7fcd0da0f8eba1934", "image": "upload/b4af8f9c-41d3-4e57-a234-b5648df530d8", "name": "สวนลุงวร ระนอง แกลมป์ปิ้ง", "name_en": "Suan Lung Vorn Ranong Glamping", "category": "ร้านอาหาร", "sub_category": "อื่นๆ"}, "type": "Feature"}, {"geometry": {"coordinates": [98.630014, 9.960801], "type": "Point"}, "properties": {"id": "4741a66507074961d408559ab393806c", "image": "upload/b4af8f9c-41d3-4e57-a234-b5648df530d8", "name": "พี่ยัน ขายผัก", "name_en": "PEEYANSHOP", "category": "ซุปเปอร์มาร์เก็ต/ขายของใช้/ขายของชำ/มินิมาร์ท/ตลาดสด", "sub_category": "ตลาดสด"}, "type": "Feature"}, {"geometry": {"coordinates": [98.644042, 9.966221], "type": "Point"}, "properties": {"id": "f6d109e1304f57b09cb00727e08f6131", "image": "upload/b4af8f9c-41d3-4e57-a234-b5648df530d8", "name": "เฉาก๊วยเต็งหนึ่ง", "name_en": "TANGNUENG", "category": "ร้านอาหาร", "sub_category": "ของหวาน ไอศกรีม เบเกอรี่ เครื่องดื่ม"}, "type": "Feature"}, {"geometry": {"coordinates": [98.595914, 9.847614], "type": "Point"}, "properties": {"id": "e97bb9d7a9ffe98b081ae2b8d16aebbb", "image": "upload/b4af8f9c-41d3-4e57-a234-b5648df530d8", "name": "ร้านจ๊ะแอ๋ว", "name_en": "JAEAW", "category": "ร้านอาหาร", "sub_category": "ก๋วยเตี๋ยว ก๋วยจั๊บ"}, "type": "Feature"}, {"geometry": {"coordinates": [98.595235, 9.748138], "type": "Point"}, "properties": {"id": "11fc6a065d586a7ddffc44427cdb8568", "image": "upload/b4af8f9c-41d3-4e57-a234-b5648df530d8", "name": "ซาดีนา สมุทรสารัญ", "name_en": "NANASAUT", "category": "ร้านอาหาร", "sub_category": "อาหารทั่วไป อาหารตามสั่ง อาหารจานเดียว"}, "type": "Feature"}, {"geometry": {"coordinates": [98.64033620583199, 9.95830290877824], "type": "Point"}, "properties": {"id": "502b1e19a65e22ff7d2166b866575f33", "image": "upload/5247b033-5995-4123-9178-df6a17ea29ba", "name": "คอฟฟี่บาร์", "name_en": "Coffee bar Ranong", "category": "ร้านอาหาร", "sub_category": "อาหารทั่วไป อาหารตามสั่ง อาหารจานเดียว"}, "type": "Feature"}, {"geometry": {"coordinates": [98.691, 9.9487928], "type": "Point"}, "properties": {"id": "478d7845b420929a5e10e333917dbb3e", "image": "upload/e348593d-65be-46c2-81ba-ab59c3fd9a7e", "name": "ร้านสมโชค", "name_en": "Somchok Ranong", "category": "ร้านอาหาร", "sub_category": "อาหารทั่วไป อาหารตามสั่ง อาหารจานเดียว"}, "type": "Feature"}, {"geometry": {"coordinates": [98.6329321, 9.9585386], "type": "Point"}, "properties": {"id": "8b4154df5f72abdf2d732bc0642a4406", "image": "upload/d80a210a-88fe-452e-a50b-f7f20b8ac927", "name": "ยำส้มตำท้ายซอย", "name_en": "Yumsomtumthaisoi", "category": "ร้านอาหาร", "sub_category": "อาหารทั่วไป อาหารตามสั่ง อาหารจานเดียว"}, "type": "Feature"}, {"geometry": {"coordinates": [98.633125, 9.973417], "type": "Point"}, "properties": {"id": "0bbad2939d2fcd408e67a3ad3da59f1e", "image": "upload/d80a210a-88fe-452e-a50b-f7f20b8ac927", "name": "ก๋วยเตี๋ยวเรือรสเด็ด", "name_en": "", "category": "ร้านอาหาร/เครื่องดื่ม", "sub_category": ""}, "type": "Feature"}, {"geometry": {"coordinates": [98.63856567904119, 9.976158052802896], "type": "Point"}, "properties": {"id": "bab5b9c7ccf80752e4bc0e2472f84023", "image": "upload/fd02ad6b-9b9e-4d66-8a73-15a46316c460", "name": "กัตโตะชา", "name_en": "Gatto Cha", "category": "ร้านอาหาร", "sub_category": "ของหวาน ไอศกรีม เบเกอรี่ เครื่องดื่ม"}, "type": "Feature"}, {"geometry": {"coordinates": [98.635935, 9.974527], "type": "Point"}, "properties": {"id": "f945aacb50854687c75b128dfe10ea1b", "image": "upload/fd02ad6b-9b9e-4d66-8a73-15a46316c460", "name": "เบญจมาศ ของชำ", "name_en": "BENCHAMATSHOP", "category": "ซุปเปอร์มาร์เก็ต/ขายของใช้/ขายของชำ/มินิมาร์ท/ตลาดสด", "sub_category": "มินิมาร์ท / ร้านขายของชำ"}, "type": "Feature"}, {"geometry": {"coordinates": [98.6266275, 9.9542345], "type": "Point"}, "properties": {"id": "ae2a506d290fa627a1b9042996aa2b16", "image": "upload/4e098fcf-d4cf-4c0a-b2ca-b7f084a01c04", "name": "ลุงชัย ข้าวแกงซอย 7", "name_en": "Lungchaisoi7", "category": "ร้านอาหาร", "sub_category": "อาหารทั่วไป อาหารตามสั่ง อาหารจานเดียว"}, "type": "Feature"}, {"geometry": {"coordinates": [98.633035, 9.960397], "type": "Point"}, "properties": {"id": "1bad5e5261284d4b54b7789503c24f08", "image": "upload/4e098fcf-d4cf-4c0a-b2ca-b7f084a01c04", "name": "สุภาพร นวลประดิษฐ์", "name_en": "PORNSUPEE", "category": "ซุปเปอร์มาร์เก็ต/ขายของใช้/ขายของชำ/มินิมาร์ท/ตลาดสด", "sub_category": "มินิมาร์ท / ร้านขายของชำ"}, "type": "Feature"}, {"geometry": {"coordinates": [98.416674, 9.373192], "type": "Point"}, "properties": {"id": "5a7cd9757f1e24a33557f1cd0b28b8c5", "image": "upload/4e098fcf-d4cf-4c0a-b2ca-b7f084a01c04", "name": "รัตนา", "name_en": "", "category": "ร้านค้าธงฟ้า", "sub_category": ""}, "type": "Feature"}, {"geometry": {"coordinates": [98.636995, 9.955115], "type": "Point"}, "properties": {"id": "0f677e95cbe8cf2a007de4e739cd6142", "image": "upload/4e098fcf-d4cf-4c0a-b2ca-b7f084a01c04", "name": "ร้านลูกชิ้นอามีน", "name_en": "AREEMEN", "category": "ร้านอาหาร", "sub_category": "อาหารว่าง ขนม ของกินเล่น"}, "type": "Feature"}, {"geometry": {"coordinates": [98.638231, 9.975779], "type": "Point"}, "properties": {"id": "bd9cbbac6f0d16a5f07291be484236e4", "image": "upload/4e098fcf-d4cf-4c0a-b2ca-b7f084a01c04", "name": "ร้านอาหารบ้านร้อยปีเทียนสือ", "name_en": "", "category": "ร้านอาหาร/เครื่องดื่ม", "sub_category": ""}, "type": "Feature"}, {"geometry": {"coordinates": [98.6431171461022, 9.965291999115017], "type": "Point"}, "properties": {"id": "a72c86fb819ee29f3f9db38a5322efbb", "image": "upload/d474dbcb-b834-422a-ba4c-5410bf749972", "name": "อีเดน", "name_en": "EDEN", "category": "ร้านอาหาร", "sub_category": "ของหวาน ไอศกรีม เบเกอรี่ เครื่องดื่ม"}, "type": "Feature"}, {"geometry": {"coordinates": [98.602611, 9.59171], "type": "Point"}, "properties": {"id": "e939467d684b84ef7f08703fdab10877", "image": "upload/d474dbcb-b834-422a-ba4c-5410bf749972", "name": "ร้านแพรไหม", "name_en": "", "category": "ร้านค้าธงฟ้า", "sub_category": ""}, "type": "Feature"}, {"geometry": {"coordinates": [98.816983, 10.49222], "type": "Point"}, "properties": {"id": "30b2940b756af1b772f3b1dad3b98aad", "image": "upload/d474dbcb-b834-422a-ba4c-5410bf749972", "name": "ร้านนิตา", "name_en": "NITA", "category": "ร้านอาหาร", "sub_category": "อื่นๆ"}, "type": "Feature"}, {"geometry": {"coordinates": [98.713191, 10.177193], "type": "Point"}, "properties": {"id": "fbfc35e71fa75a0076dd6e3157cba612", "image": "upload/d474dbcb-b834-422a-ba4c-5410bf749972", "name": "วันชัย", "name_en": "", "category": "ร้านค้าธงฟ้า", "sub_category": ""}, "type": "Feature"}, {"geometry": {"coordinates": [98.828627, 10.2675], "type": "Point"}, "properties": {"id": "88fb4e82b9490b285f4dc21379e61d94", "image": "upload/d474dbcb-b834-422a-ba4c-5410bf749972", "name": "ร้านเจน", "name_en": "", "category": "ร้านค้าธงฟ้า", "sub_category": ""}, "type": "Feature"}, {"geometry": {"coordinates": [98.6293979, 9.9595795], "type": "Point"}, "properties": {"id": "0ae2a4a1a1bacbda3ebc56801174228a", "image": "upload/d6379f72-5b8c-46ed-9151-db8a9e93633f", "name": "ร้านพรเจริญ", "name_en": "Pornjaruen", "category": "ร้านอาหาร", "sub_category": "อาหารทั่วไป อาหารตามสั่ง อาหารจานเดียว"}, "type": "Feature"}, {"geometry": {"coordinates": [98.457474, 9.434451], "type": "Point"}, "properties": {"id": "cba366b7446cffd56c8785e5b2020d06", "image": "upload/d6379f72-5b8c-46ed-9151-db8a9e93633f", "name": "มาริษา", "name_en": "", "category": "ร้านค้าธงฟ้า", "sub_category": ""}, "type": "Feature"}, {"geometry": {"coordinates": [98.48938, 9.449814], "type": "Point"}, "properties": {"id": "f4ba68fa1d4a621b74486970b9f2beb8", "image": "upload/d6379f72-5b8c-46ed-9151-db8a9e93633f", "name": "สมเกียรติ จันทวงศ์", "name_en": "SOMKIAT", "category": "ร้านอาหาร", "sub_category": "ร้านอาหารอีสาน"}, "type": "Feature"}, {"geometry": {"coordinates": [98.690583, 9.959784], "type": "Point"}, "properties": {"id": "6f52a428c58df7daac1735cd54e03ed1", "image": "upload/d6379f72-5b8c-46ed-9151-db8a9e93633f", "name": "ร้านรติยา (ร้านนายก)", "name_en": "", "category": "ร้านค้าท้องถิ่น/ผลิตภัณฑ์ชุมชน/OTOP", "sub_category": ""}, "type": "Feature"}, {"geometry": {"coordinates": [98.415817, 9.367578], "type": "Point"}, "properties": {"id": "dc350dc2c76b493f165c59b610667fb3", "image": "upload/d6379f72-5b8c-46ed-9151-db8a9e93633f", "name": "ศุภกิจนานาภัณฑ์", "name_en": "", "category": "ร้านค้าธงฟ้า", "sub_category": ""}, "type": "Feature"}, {"geometry": {"coordinates": [98.640558, 9.967384], "type": "Point"}, "properties": {"id": "ccfe7e010cc665b348c0c04c159d0482", "image": "upload/d6379f72-5b8c-46ed-9151-db8a9e93633f", "name": "โตเกียวดัง", "name_en": "TOHGIEOWDUNG", "category": "ร้านอาหาร", "sub_category": "อาหารว่าง ขนม ของกินเล่น"}, "type": "Feature"}, {"geometry": {"coordinates": [98.640558, 9.967384], "type": "Point"}, "properties": {"id": "ccfe7e010cc665b348c0c04c159d0482", "image": "upload/d6379f72-5b8c-46ed-9151-db8a9e93633f", "name": "โตเกียวดัง", "name_en": "TOHGIEOWDUNG", "category": "ร้านอาหาร", "sub_category": "อาหารว่าง ขนม ของกินเล่น"}, "type": "Feature"}, {"geometry": {"coordinates": [98.649962, 9.991711], "type": "Point"}, "properties": {"id": "14bf4e590ded60edbdb570f42daa0a46", "image": "upload/d6379f72-5b8c-46ed-9151-db8a9e93633f", "name": "สมปอง", "name_en": "", "category": "ร้านค้าธงฟ้า", "sub_category": ""}, "type": "Feature"}, {"geometry": {"coordinates": [98.6293979, 9.9595795], "type": "Point"}, "properties": {"id": "0ae2a4a1a1bacbda3ebc56801174228a", "image": "upload/d6379f72-5b8c-46ed-9151-db8a9e93633f", "name": "ร้านพรเจริญ", "name_en": "Pornjaruen", "category": "ร้านอาหาร", "sub_category": "อาหารทั่วไป อาหารตามสั่ง อาหารจานเดียว"}, "type": "Feature"}, {"geometry": {"coordinates": [98.457474, 9.434451], "type": "Point"}, "properties": {"id": "cba366b7446cffd56c8785e5b2020d06", "image": "upload/d6379f72-5b8c-46ed-9151-db8a9e93633f", "name": "มาริษา", "name_en": "", "category": "ร้านค้าธงฟ้า", "sub_category": ""}, "type": "Feature"}, {"geometry": {"coordinates": [98.638231, 9.975779], "type": "Point"}, "properties": {"id": "bd9cbbac6f0d16a5f07291be484236e4", "image": "upload/d6379f72-5b8c-46ed-9151-db8a9e93633f", "name": "ร้านอาหารบ้านร้อยปีเทียนสือ", "name_en": "", "category": "ร้านอาหาร/เครื่องดื่ม", "sub_category": ""}, "type": "Feature"}, {"geometry": {"coordinates": [98.621644, 9.952584], "type": "Point"}, "properties": {"id": "2baaa125921bad11b2fc34ec96ee5187", "image": "upload/d6379f72-5b8c-46ed-9151-db8a9e93633f", "name": "ยายแมะ ขายผัก", "name_en": "YAIMAE", "category": "ซุปเปอร์มาร์เก็ต/ขายของใช้/ขายของชำ/มินิมาร์ท/ตลาดสด", "sub_category": "ตลาดสด"}, "type": "Feature"}, {"geometry": {"coordinates": [98.731071, 10.12944], "type": "Point"}, "properties": {"id": "928e938be7f2091d1ad9085c66f88181", "image": "upload/d6379f72-5b8c-46ed-9151-db8a9e93633f", "name": "ร้านเจ๊มิ้ก", "name_en": "", "category": "ร้านค้าธงฟ้า", "sub_category": ""}, "type": "Feature"}, {"geometry": {"coordinates": [98.60202, 9.952176], "type": "Point"}, "properties": {"id": "5ed0c2a4194f142494e69eb984d46d56", "image": "upload/d6379f72-5b8c-46ed-9151-db8a9e93633f", "name": "เจ้จิ๋มลอดช่องสิงคโปร์", "name_en": "JIM", "category": "ร้านอาหาร", "sub_category": "ของหวาน ไอศกรีม เบเกอรี่ เครื่องดื่ม"}, "type": "Feature"}, {"geometry": {"coordinates": [98.632104, 9.960346], "type": "Point"}, "properties": {"id": "c12e55d0c8ac302486944447967865a2", "image": "upload/d6379f72-5b8c-46ed-9151-db8a9e93633f", "name": "ธนิตา เตชะอนันตกุล", "name_en": "THANITATECHAANAN", "category": "ร้านอาหาร", "sub_category": "ของหวาน ไอศกรีม เบเกอรี่ เครื่องดื่ม"}, "type": "Feature"}, {"geometry": {"coordinates": [98.79828203499319, 9.71472863573848], "type": "Point"}, "properties": {"id": "3f781d87aa1ad975cc676cc49636eb2f", "image": "upload/7d92610b-92ff-4977-b334-b159cfe44778", "name": "ก้องวัลเลย์", "name_en": "Gongvalley", "category": "ร้านอาหาร", "sub_category": "อาหารทั่วไป อาหารตามสั่ง อาหารจานเดียว"}, "type": "Feature"}, {"geometry": {"coordinates": [98.541527, 9.610109], "type": "Point"}, "properties": {"id": "3725accca988a9c284bd91806a5dd5b0", "image": "upload/7d92610b-92ff-4977-b334-b159cfe44778", "name": "มินิมาร์ทลากูน่า", "name_en": "", "category": "ร้านค้าธงฟ้า", "sub_category": ""}, "type": "Feature"}, {"geometry": {"coordinates": [98.63383769989014, 9.95662453133717], "type": "Point"}, "properties": {"id": "14c876f0a65235f3afb5d8527c365893", "image": "upload/f58d1c62-7c2d-4c1f-af98-0d868859e9de", "name": "ไนซ์คอฟฟี่", "name_en": "Nice Coffee", "category": "ร้านอาหาร", "sub_category": "ของหวาน ไอศกรีม เบเกอรี่ เครื่องดื่ม"}, "type": "Feature"}, {"geometry": {"coordinates": [98.697712, 9.574448], "type": "Point"}, "properties": {"id": "5d1418556a1621e5f2b3dd2d2950d958", "image": "upload/f58d1c62-7c2d-4c1f-af98-0d868859e9de", "name": "นางปราณี ตันนุ้ย", "name_en": "", "category": "ร้านค้าธงฟ้า", "sub_category": ""}, "type": "Feature"}, {"geometry": {"coordinates": [98.645183, 9.977216], "type": "Point"}, "properties": {"id": "f5bc03309c79709219dd9f518773d316", "image": "upload/f58d1c62-7c2d-4c1f-af98-0d868859e9de", "name": "ป้าใจข้าวแกง", "name_en": "JAI", "category": "ร้านอาหาร", "sub_category": "อาหารทั่วไป อาหารตามสั่ง อาหารจานเดียว"}, "type": "Feature"}, {"geometry": {"coordinates": [98.593418, 9.788753], "type": "Point"}, "properties": {"id": "38778991f53165ebfb777aa64de07447", "image": "upload/f58d1c62-7c2d-4c1f-af98-0d868859e9de", "name": "NURSECOFFEE", "name_en": "NURSECOFFEE", "category": "ร้านอาหาร", "sub_category": "ของหวาน ไอศกรีม เบเกอรี่ เครื่องดื่ม"}, "type": "Feature"}, {"geometry": {"coordinates": [98.489563, 9.869569], "type": "Point"}, "properties": {"id": "b117669c4b7c059c0d26113bc4545b8e", "image": "upload/f58d1c62-7c2d-4c1f-af98-0d868859e9de", "name": "ใบยูน", "name_en": "", "category": "ร้านค้าธงฟ้า", "sub_category": ""}, "type": "Feature"}, {"geometry": {"coordinates": [98.62813, 9.917582], "type": "Point"}, "properties": {"id": "e9b55c56d3bd8d341eed9ebc80b58588", "image": "upload/f58d1c62-7c2d-4c1f-af98-0d868859e9de", "name": "ตำแซ่บริมเขื่อน", "name_en": "TUMZAB", "category": "ร้านอาหาร", "sub_category": "อาหารทั่วไป อาหารตามสั่ง อาหารจานเดียว"}, "type": "Feature"}, {"geometry": {"coordinates": [98.621086, 9.953512], "type": "Point"}, "properties": {"id": "4e6d1166bf7e184a3a07eba495a1c344", "image": "upload/f58d1c62-7c2d-4c1f-af98-0d868859e9de", "name": "ชาอลิน", "name_en": "CHAALIN", "category": "ร้านอาหาร", "sub_category": "ของหวาน ไอศกรีม เบเกอรี่ เครื่องดื่ม"}, "type": "Feature"}, {"geometry": {"coordinates": [98.561664, 9.604177], "type": "Point"}, "properties": {"id": "4b8d2c3fd9ad84f63baeafbf812d705b", "image": "upload/f58d1c62-7c2d-4c1f-af98-0d868859e9de", "name": "ฉ้ารีฝ้าการค้า", "name_en": "NUDCHADA", "category": "ซุปเปอร์มาร์เก็ต/ขายของใช้/ขายของชำ/มินิมาร์ท/ตลาดสด", "sub_category": "มินิมาร์ท / ร้านขายของชำ"}, "type": "Feature"}, {"geometry": {"coordinates": [98.632104, 9.960346], "type": "Point"}, "properties": {"id": "c12e55d0c8ac302486944447967865a2", "image": "upload/f58d1c62-7c2d-4c1f-af98-0d868859e9de", "name": "ธนิตา เตชะอนันตกุล", "name_en": "THANITATECHAANAN", "category": "ร้านอาหาร", "sub_category": "ของหวาน ไอศกรีม เบเกอรี่ เครื่องดื่ม"}, "type": "Feature"}, {"geometry": {"coordinates": [98.541527, 9.610109], "type": "Point"}, "properties": {"id": "3725accca988a9c284bd91806a5dd5b0", "image": "upload/f58d1c62-7c2d-4c1f-af98-0d868859e9de", "name": "มินิมาร์ทลากูน่า", "name_en": "", "category": "ร้านค้าธงฟ้า", "sub_category": ""}, "type": "Feature"}, {"geometry": {"coordinates": [98.633735, 9.964367], "type": "Point"}, "properties": {"id": "98505ee6bb43000797a35c318b985b77", "image": "upload/f58d1c62-7c2d-4c1f-af98-0d868859e9de", "name": "เดอะแคสปาร์ ระนอง", "name_en": "THECASPAR", "category": "ร้านอาหาร", "sub_category": "ของหวาน ไอศกรีม เบเกอรี่ เครื่องดื่ม"}, "type": "Feature"}, {"geometry": {"coordinates": [98.871917, 10.735244], "type": "Point"}, "properties": {"id": "e1776ddc4577c8d2742f60cdb14dd5eb", "image": "upload/f58d1c62-7c2d-4c1f-af98-0d868859e9de", "name": "ร้านคุณคไผาล", "name_en": "", "category": "ร้านค้าธงฟ้า", "sub_category": ""}, "type": "Feature"}, {"geometry": {"coordinates": [98.439372, 9.399588], "type": "Point"}, "properties": {"id": "53e665724c4c8091a413788b4431519f", "image": "upload/f58d1c62-7c2d-4c1f-af98-0d868859e9de", "name": "ชาปี่น๊ะ", "name_en": "", "category": "ร้านค้าธงฟ้า", "sub_category": ""}, "type": "Feature"}, {"geometry": {"coordinates": [98.593418, 9.788753], "type": "Point"}, "properties": {"id": "38778991f53165ebfb777aa64de07447", "image": "upload/f58d1c62-7c2d-4c1f-af98-0d868859e9de", "name": "NURSECOFFEE", "name_en": "NURSECOFFEE", "category": "ร้านอาหาร", "sub_category": "ของหวาน ไอศกรีม เบเกอรี่ เครื่องดื่ม"}, "type": "Feature"}, {"geometry": {"coordinates": [98.634275, 9.964238], "type": "Point"}, "properties": {"id": "805e6721b85064c867bb62445e7857a8", "image": "upload/f58d1c62-7c2d-4c1f-af98-0d868859e9de", "name": "จ๊ะม๊ะ ไส้กรอกอีสาน", "name_en": "JAMA", "category": "ร้านอาหาร", "sub_category": "อื่นๆ"}, "type": "Feature"}, {"geometry": {"coordinates": [98.489563, 9.869569], "type": "Point"}, "properties": {"id": "b117669c4b7c059c0d26113bc4545b8e", "image": "upload/f58d1c62-7c2d-4c1f-af98-0d868859e9de", "name": "ใบยูน", "name_en": "", "category": "ร้านค้าธงฟ้า", "sub_category": ""}, "type": "Feature"}, {"geometry": {"coordinates": [98.6323344, 9.9563466], "type": "Point"}, "properties": {"id": "5496b071b4d0c12fdae93ed36d1c3b95", "image": "upload/09681c4b-65f8-44f2-87ff-3884fdbe3ff3", "name": "โรตีบังหนุ่ย", "name_en": "Rotibangnui", "category": "ร้านอาหาร", "sub_category": "อาหารมุสลิม อิสลาม"}, "type": "Feature"}, {"geometry": {"coordinates": [98.649962, 9.991711], "type": "Point"}, "properties": {"id": "14bf4e590ded60edbdb570f42daa0a46", "image": "upload/09681c4b-65f8-44f2-87ff-3884fdbe3ff3", "name": "สมปอง", "name_en": "", "category": "ร้านค้าธงฟ้า", "sub_category": ""}, "type": "Feature"}, {"geometry": {"coordinates": [98.621644, 9.952584], "type": "Point"}, "properties": {"id": "2baaa125921bad11b2fc34ec96ee5187", "image": "upload/09681c4b-65f8-44f2-87ff-3884fdbe3ff3", "name": "ยายแมะ ขายผัก", "name_en": "YAIMAE", "category": "ซุปเปอร์มาร์เก็ต/ขายของใช้/ขายของชำ/มินิมาร์ท/ตลาดสด", "sub_category": "ตลาดสด"}, "type": "Feature"}, {"geometry": {"coordinates": [100.992538, 15.870032], "type": "Point"}, "properties": {"id": "5e06590d25b3624ce7d57b6cd5a579ac", "image": "upload/09681c4b-65f8-44f2-87ff-3884fdbe3ff3", "name": "อริสา ทองพันธ์", "name_en": "ARISA", "category": "ร้านอาหาร", "sub_category": "อาหารว่าง ขนม ของกินเล่น"}, "type": "Feature"}, {"geometry": {"coordinates": [99.73161, 12.739275], "type": "Point"}, "properties": {"id": "0673b3a47d38b7c695f498789757120f", "image": "upload/09681c4b-65f8-44f2-87ff-3884fdbe3ff3", "name": "ไพโรจน์ หนูสมตน", "name_en": "PHAIROTNUSOMTOM", "category": "ร้านอาหาร", "sub_category": "อื่นๆ"}, "type": "Feature"}, {"geometry": {"coordinates": [98.632543, 9.960042], "type": "Point"}, "properties": {"id": "2b775c84e515bf737b2d12320e09851e", "image": "upload/09681c4b-65f8-44f2-87ff-3884fdbe3ff3", "name": "เจ้อ้อนลูกชิ้นระนอง", "name_en": "", "category": "ร้านอาหาร/เครื่องดื่ม", "sub_category": ""}, "type": "Feature"}, {"geometry": {"coordinates": [98.610285, 9.849345], "type": "Point"}, "properties": {"id": "acd1c90cd86ed3608ce07ac321b5e980", "image": "upload/09681c4b-65f8-44f2-87ff-3884fdbe3ff3", "name": "ครัวกุ๊กหมึก", "name_en": "KOOKMUEK", "category": "ร้านอาหาร", "sub_category": "อาหารทั่วไป อาหารตามสั่ง อาหารจานเดียว"}, "type": "Feature"}, {"geometry": {"coordinates": [98.62971, 9.961309], "type": "Point"}, "properties": {"id": "6f37267f28ac6647a6c14a389b37bd20", "image": "upload/09681c4b-65f8-44f2-87ff-3884fdbe3ff3", "name": "ผึ้ง ผลไม้", "name_en": "PHUENGFRUIT", "category": "ร้านอาหาร", "sub_category": "ร้านขายผลไม้ / ร้านขายผัก"}, "type": "Feature"}, {"geometry": {"coordinates": [98.731071, 10.12944], "type": "Point"}, "properties": {"id": "928e938be7f2091d1ad9085c66f88181", "image": "upload/09681c4b-65f8-44f2-87ff-3884fdbe3ff3", "name": "ร้านเจ๊มิ้ก", "name_en": "", "category": "ร้านค้าธงฟ้า", "sub_category": ""}, "type": "Feature"}, {"geometry": {"coordinates": [98.79828203499319, 9.71472863573848], "type": "Point"}, "properties": {"id": "3f781d87aa1ad975cc676cc49636eb2f", "image": "upload/7d92610b-92ff-4977-b334-b159cfe44778", "name": "ก้องวัลเลย์", "name_en": "Gongvalley", "category": "ร้านอาหาร", "sub_category": "อาหารทั่วไป อาหารตามสั่ง อาหารจานเดียว"}, "type": "Feature"}, {"geometry": {"coordinates": [98.598741, 9.74282], "type": "Point"}, "properties": {"id": "783b632a790b656266348e36b16b1425", "image": "upload/7d92610b-92ff-4977-b334-b159cfe44778", "name": "ขนมครกญี่ปุ่นและซูชิ", "name_en": "SUNEEPORN", "category": "ร้านอาหาร", "sub_category": "ร้านอาหารญี่ปุ่น"}, "type": "Feature"}, {"geometry": {"coordinates": [98.63275542855263, 9.960342860653435], "type": "Point"}, "properties": {"id": "07cf14e4006a888fba3c2d77b04fba92", "image": "upload/e4569e67-dd44-48ad-a9cb-938580684545", "name": "บางส้านพานิช", "name_en": "bangsanpanich", "category": "ร้านอาหาร", "sub_category": "อาหารว่าง ขนม ของกินเล่น"}, "type": "Feature"}, {"geometry": {"coordinates": [98.63383769989014, 9.95662453133717], "type": "Point"},