{
  "features": [
    {
      "geometry": {
        "coordinates": [
          99.006405,
          18.761174
        ],
        "type": "Point"
      },
      "properties": {
        "name": "พนิดา ปึงศิริพัฒนา",
        "category": "ซุปเปอร์มาร์เก็ต/ขายของใช้/ขายของชำ/มินิมาร์ท/ตลาดสด",
        "sub_category": "ร้านขายของใช้ / อุปกรณ์"
      },
      "type": "Feature"
    },
    {
      "geometry": {
        "coordinates": [
          99.000227,
          18.773135
        ],
        "type": "Point"
      },
      "properties": {
        "name": "นารี",
        "category": "ซุปเปอร์มาร์เก็ต/ขายของใช้/ขายของชำ/มินิมาร์ท/ตลาดสด",
        "sub_category": "มินิมาร์ท / ร้านขายของชำ"
      },
      "type": "Feature"
    },
    {
      "geometry": {
        "coordinates": [
          99.011647,
          18.823612
        ],
        "type": "Point"
      },
      "properties": {
        "name": "เอื้องฟ้า",
        "category": "ร้านค้าท้องถิ่น/ผลิตภัณฑ์ชุมชน/OTOP",
        "sub_category": ""
      },
      "type": "Feature"
    },
    {
      "geometry": {
        "coordinates": [
          99.104517,
          18.794239
        ],
        "type": "Point"
      },
      "properties": {
        "name": "ok",
        "category": "ร้านค้าธงฟ้า",
        "sub_category": ""
      },
      "type": "Feature"
    },
    {
      "geometry": {
        "coordinates": [
          99.104529,
          18.794156
        ],
        "type": "Point"
      },
      "properties": {
        "name": "เด่นเจริญของใช้",
        "category": "ร้านค้าธงฟ้า",
        "sub_category": ""
      },
      "type": "Feature"
    },
    {
      "geometry": {
        "coordinates": [
          99.011468,
          18.823438
        ],
        "type": "Point"
      },
      "properties": {
        "name": "วอฟเฟิล@เจียงใหม่",
        "category": "ร้านอาหาร",
        "sub_category": "ของหวาน ไอศกรีม เบเกอรี่ เครื่องดื่ม"
      },
      "type": "Feature"
    },
    {
      "geometry": {
        "coordinates": [
          98.9987472,
          18.7779279
        ],
        "type": "Point"
      },
      "properties": {
        "name": "ก๋วยเตี๋ยวเสวยโจ๊กโตเกียว",
        "category": "ร้านอาหาร",
        "sub_category": "ก๋วยเตี๋ยว ก๋วยจั๊บ"
      },
      "type": "Feature"
    },
    {
      "geometry": {
        "coordinates": [
          98.9987905,
          18.7777327
        ],
        "type": "Point"
      },
      "properties": {
        "name": "ยุทธกร ปรัตถจริยาวงศ์",
        "category": "ร้านอาหาร",
        "sub_category": "อาหารทั่วไป อาหารตามสั่ง อาหารจานเดียว"
      },
      "type": "Feature"
    },
    {
      "geometry": {
        "coordinates": [
          99.004747,
          18.814836
        ],
        "type": "Point"
      },
      "properties": {
        "name": "เจนจิรา ยาณะเหล็ก",
        "category": "ซุปเปอร์มาร์เก็ต/ขายของใช้/ขายของชำ/มินิมาร์ท/ตลาดสด",
        "sub_category": "มินิมาร์ท / ร้านขายของชำ"
      },
      "type": "Feature"
    },
    {
      "geometry": {
        "coordinates": [
          99.104596,
          18.793781
        ],
        "type": "Point"
      },
      "properties": {
        "name": "บ้านโรตี นาดา",
        "category": "ร้านอาหาร/เครื่องดื่ม",
        "sub_category": ""
      },
      "type": "Feature"
    },
    {
      "geometry": {
        "coordinates": [
          98.9987371,
          18.777844
        ],
        "type": "Point"
      },
      "properties": {
        "name": "ไนซ์หมูสะเต๊ะเกี้ยมอี๋น้ำใส",
        "category": "ร้านอาหาร",
        "sub_category": "ก๋วยเตี๋ยว ก๋วยจั๊บ"
      },
      "type": "Feature"
    },
    {
      "geometry": {
        "coordinates": [
          99.011618,
          18.823677
        ],
        "type": "Point"
      },
      "properties": {
        "name": "เศรษฐีหนุ่ม น้ำตก คอหมูย่าง",
        "category": "ร้านอาหาร",
        "sub_category": "ร้านอาหารอีสาน"
      },
      "type": "Feature"
    },
    {
      "geometry": {
        "coordinates": [
          98.9987404,
          18.7777587
        ],
        "type": "Point"
      },
      "properties": {
        "name": "ร้่านผัดไทยลำแต้ ขนมจีนโบราณ",
        "category": "ร้านอาหาร",
        "sub_category": "อาหารเหนือ"
      },
      "type": "Feature"
    },
    {
      "geometry": {
        "coordinates": [
          99.011786,
          18.823871
        ],
        "type": "Point"
      },
      "properties": {
        "name": " ลูกชิ้นลอยขุนคำ",
        "category": "ร้านอาหาร",
        "sub_category": "อาหารทั่วไป อาหารตามสั่ง อาหารจานเดียว"
      },
      "type": "Feature"
    },
    {
      "geometry": {
        "coordinates": [
          98.999146,
          18.776147
        ],
        "type": "Point"
      },
      "properties": {
        "name": "สมเจตน์ สัญจร",
        "category": "ร้านอาหาร",
        "sub_category": "อาหารทั่วไป อาหารตามสั่ง อาหารจานเดียว"
      },
      "type": "Feature"
    },
    {
      "geometry": {
        "coordinates": [
          99.011554,
          18.823664
        ],
        "type": "Point"
      },
      "properties": {
        "name": "นุชจิรา เสาวรส",
        "category": "ร้านค้าธงฟ้า",
        "sub_category": ""
      },
      "type": "Feature"
    },
    {
      "geometry": {
        "coordinates": [
          99.011562,
          18.823677
        ],
        "type": "Point"
      },
      "properties": {
        "name": "JOYPORPIAKOBKANTEP",
        "category": "ร้านอาหาร",
        "sub_category": "ของหวาน ไอศกรีม เบเกอรี่ เครื่องดื่ม"
      },
      "type": "Feature"
    },
    {
      "geometry": {
        "coordinates": [
          99.011386,
          18.823551
        ],
        "type": "Point"
      },
      "properties": {
        "name": "บอย บะหมี่เกี้ยวหมูแดง",
        "category": "ร้านอาหาร",
        "sub_category": "ก๋วยเตี๋ยว ก๋วยจั๊บ"
      },
      "type": "Feature"
    },
    {
      "geometry": {
        "coordinates": [
          99.0561,
          18.754553
        ],
        "type": "Point"
      },
      "properties": {
        "name": "กาญจนา ปานะเส็น",
        "category": "ซุปเปอร์มาร์เก็ต/ขายของใช้/ขายของชำ/มินิมาร์ท/ตลาดสด",
        "sub_category": "ตลาดสด"
      },
      "type": "Feature"
    },
    {
      "geometry": {
        "coordinates": [
          99.056141,
          18.754552
        ],
        "type": "Point"
      },
      "properties": {
        "name": "น้องแมวอาหารทะเล",
        "category": "ร้านค้าธงฟ้า",
        "sub_category": ""
      },
      "type": "Feature"
    },
    {
      "geometry": {
        "coordinates": [
          99.078469,
          18.765665
        ],
        "type": "Point"
      },
      "properties": {
        "name": "ประดิษฐ์ ลี้วารินทร์พาณิช",
        "category": "สุขภาพ/ความงาม",
        "sub_category": "ร้านขายยาและอาหารเสริม"
      },
      "type": "Feature"
    },
    {
      "geometry": {
        "coordinates": [
          99.0548034,
          18.7542302
        ],
        "type": "Point"
      },
      "properties": {
        "name": "นิวเพ็ญจันทร์โภชนา",
        "category": "ร้านอาหาร",
        "sub_category": "ก๋วยเตี๋ยว ก๋วยจั๊บ"
      },
      "type": "Feature"
    },
    {
      "geometry": {
        "coordinates": [
          99.01410143040232,
          18.785923125071996
        ],
        "type": "Point"
      },
      "properties": {
        "name": "ข้าวมันไก่ไปรษณีย์",
        "category": "ร้านอาหาร",
        "sub_category": "อาหารทั่วไป อาหารตามสั่ง อาหารจานเดียว"
      },
      "type": "Feature"
    },
    {
      "geometry": {
        "coordinates": [
          99.0151472,
          18.7982035
        ],
        "type": "Point"
      },
      "properties": {
        "name": "โดทงยากิ สเต็กเฮ้าท์ & ราเมง",
        "category": "ร้านอาหาร",
        "sub_category": "ร้านอาหารญี่ปุ่น"
      },
      "type": "Feature"
    },
    {
      "geometry": {
        "coordinates": [
          99.079029,
          18.76566
        ],
        "type": "Point"
      },
      "properties": {
        "name": "กัมพล พุทธวงค์",
        "category": "ซุปเปอร์มาร์เก็ต/ขายของใช้/ขายของชำ/มินิมาร์ท/ตลาดสด",
        "sub_category": "ร้านขายของใช้ / อุปกรณ์"
      },
      "type": "Feature"
    },
    {
      "geometry": {
        "coordinates": [
          99.01742041110992,
          18.773639352782432
        ],
        "type": "Point"
      },
      "properties": {
        "name": "ร้านตังฟูบุฟเฟ่ต์หมูจุ่ม",
        "category": "ร้านอาหาร",
        "sub_category": "บุฟเฟ่ต์"
      },
      "type": "Feature"
    },
    {
      "geometry": {
        "coordinates": [
          99.016983,
          18.774295
        ],
        "type": "Point"
      },
      "properties": {
        "name": "อำนวย กุณต๊ะคำ",
        "category": "ซุปเปอร์มาร์เก็ต/ขายของใช้/ขายของชำ/มินิมาร์ท/ตลาดสด",
        "sub_category": "มินิมาร์ท / ร้านขายของชำ"
      },
      "type": "Feature"
    },
    {
      "geometry": {
        "coordinates": [
          99.018315,
          18.806635
        ],
        "type": "Point"
      },
      "properties": {
        "name": "มุกดา โปธาติ๊บ",
        "category": "ร้านอาหาร",
        "sub_category": "ก๋วยเตี๋ยว ก๋วยจั๊บ"
      },
      "type": "Feature"
    },
    {
      "geometry": {
        "coordinates": [
          99.079197,
          18.765399
        ],
        "type": "Point"
      },
      "properties": {
        "name": "อิ่มอร่อย",
        "category": "ร้านอาหาร",
        "sub_category": "ก๋วยเตี๋ยว ก๋วยจั๊บ"
      },
      "type": "Feature"
    },
    {
      "geometry": {
        "coordinates": [
          99.01785644911116,
          18.805962080553915
        ],
        "type": "Point"
      },
      "properties": {
        "name": "เจ้าหญิงชีสเค้ก",
        "category": "ร้านอาหาร",
        "sub_category": "ของหวาน ไอศกรีม เบเกอรี่ เครื่องดื่ม"
      },
      "type": "Feature"
    },
    {
      "geometry": {
        "coordinates": [
          99.017867,
          18.806163
        ],
        "type": "Point"
      },
      "properties": {
        "name": "สวัสดีคัพ",
        "category": "ร้านอาหาร",
        "sub_category": "ของหวาน ไอศกรีม เบเกอรี่ เครื่องดื่ม"
      },
      "type": "Feature"
    },
    {
      "geometry": {
        "coordinates": [
          99.0793232,
          18.7653377
        ],
        "type": "Point"
      },
      "properties": {
        "name": "จีจ้า",
        "category": "ร้านอาหาร",
        "sub_category": "ของหวาน ไอศกรีม เบเกอรี่ เครื่องดื่ม"
      },
      "type": "Feature"
    },
    {
      "geometry": {
        "coordinates": [
          99.079257,
          18.765251
        ],
        "type": "Point"
      },
      "properties": {
        "name": "ก๋วยเตี๋ยวแชมป์",
        "category": "ร้านอาหาร",
        "sub_category": "ก๋วยเตี๋ยว ก๋วยจั๊บ"
      },
      "type": "Feature"
    },
    {
      "geometry": {
        "coordinates": [
          99.014026,
          18.782003
        ],
        "type": "Point"
      },
      "properties": {
        "name": "นภัสนันท์ สิริวีระนันท์",
        "category": "ร้านอาหาร",
        "sub_category": "อาหารเหนือ"
      },
      "type": "Feature"
    },
    {
      "geometry": {
        "coordinates": [
          99.014644,
          18.798955
        ],
        "type": "Point"
      },
      "properties": {
        "name": "อังคณา ไชยสิทธิ์",
        "category": "ร้านอาหาร",
        "sub_category": "อาหารว่าง ขนม ของกินเล่น"
      },
      "type": "Feature"
    },
    {
      "geometry": {
        "coordinates": [
          99.046819,
          18.824835
        ],
        "type": "Point"
      },
      "properties": {
        "name": "ไชยมงคลพาณิชย์",
        "category": "ร้านค้าธงฟ้า",
        "sub_category": ""
      },
      "type": "Feature"
    },
    {
      "geometry": {
        "coordinates": [
          99.020949,
          18.889187
        ],
        "type": "Point"
      },
      "properties": {
        "name": "เย็นตาโฟทะเล NK",
        "category": "ร้านอาหาร",
        "sub_category": "ก๋วยเตี๋ยว ก๋วยจั๊บ"
      },
      "type": "Feature"
    },
    {
      "geometry": {
        "coordinates": [
          99.146671,
          18.737419
        ],
        "type": "Point"
      },
      "properties": {
        "name": "หจก. ช.เจริญพาณิชย์ 2018",
        "category": "ร้านค้าท้องถิ่น/ผลิตภัณฑ์ชุมชน/OTOP",
        "sub_category": ""
      },
      "type": "Feature"
    },
    {
      "geometry": {
        "coordinates": [
          99.022716,
          18.889894
        ],
        "type": "Point"
      },
      "properties": {
        "name": "ช.ชา น.นม",
        "category": "ร้านอาหาร",
        "sub_category": "ของหวาน ไอศกรีม เบเกอรี่ เครื่องดื่ม"
      },
      "type": "Feature"
    },
    {
      "geometry": {
        "coordinates": [
          99.029151,
          18.686895
        ],
        "type": "Point"
      },
      "properties": {
        "name": "นาวามินิมาร์ท",
        "category": "ซุปเปอร์มาร์เก็ต/ขายของใช้/ขายของชำ/มินิมาร์ท/ตลาดสด",
        "sub_category": "มินิมาร์ท / ร้านขายของชำ"
      },
      "type": "Feature"
    },
    {
      "geometry": {
        "coordinates": [
          99.005851,
          18.884412
        ],
        "type": "Point"
      },
      "properties": {
        "name": "ศุภรัศมิ์ เอี่ยมยิ้ม",
        "category": "ร้านอาหาร",
        "sub_category": "อาหารทั่วไป อาหารตามสั่ง อาหารจานเดียว"
      },
      "type": "Feature"
    },
    {
      "geometry": {
        "coordinates": [
          98.96843522787094,
          18.858399498364335
        ],
        "type": "Point"
      },
      "properties": {
        "name": "ฟองเบียร์วุ้น",
        "category": "ร้านอาหาร",
        "sub_category": "อาหารทั่วไป อาหารตามสั่ง อาหารจานเดียว"
      },
      "type": "Feature"
    },
    {
      "geometry": {
        "coordinates": [
          98.961351,
          18.728235
        ],
        "type": "Point"
      },
      "properties": {
        "name": "ร้านค็อฟฟี่เดอแคนเดิล",
        "category": "ร้านอาหาร",
        "sub_category": "ของหวาน ไอศกรีม เบเกอรี่ เครื่องดื่ม"
      },
      "type": "Feature"
    },
    {
      "geometry": {
        "coordinates": [
          99.027779,
          18.891398
        ],
        "type": "Point"
      },
      "properties": {
        "name": "FAE CAFE LIVING",
        "category": "ร้านอาหาร",
        "sub_category": "ของหวาน ไอศกรีม เบเกอรี่ เครื่องดื่ม"
      },
      "type": "Feature"
    },
    {
      "geometry": {
        "coordinates": [
          98.943855,
          18.763796
        ],
        "type": "Point"
      },
      "properties": {
        "name": "อู้ฟู้หมูอร่อย",
        "category": "ร้านอาหาร",
        "sub_category": "อาหารทั่วไป อาหารตามสั่ง อาหารจานเดียว"
      },
      "type": "Feature"
    },
    {
      "geometry": {
        "coordinates": [
          98.9877393,
          18.7032923
        ],
        "type": "Point"
      },
      "properties": {
        "name": "ข้าวเงี้ยวแก้วบัวหลง  สารภี",
        "category": "กิจการ OTOP",
        "sub_category": "ผลิตภัณฑ์อาหาร"
      },
      "type": "Feature"
    },
    {
      "geometry": {
        "coordinates": [
          98.983196,
          18.706321
        ],
        "type": "Point"
      },
      "properties": {
        "name": "ก.การค้า",
        "category": "ร้านค้าธงฟ้า",
        "sub_category": ""
      },
      "type": "Feature"
    },
    {
      "geometry": {
        "coordinates": [
          99.021354,
          18.890249
        ],
        "type": "Point"
      },
      "properties": {
        "name": "ชาละมุน",
        "category": "ร้านอาหาร",
        "sub_category": "ของหวาน ไอศกรีม เบเกอรี่ เครื่องดื่ม"
      },
      "type": "Feature"
    },
    {
      "geometry": {
        "coordinates": [
          99.021968,
          18.89042
        ],
        "type": "Point"
      },
      "properties": {
        "name": "อ๊อบขาหมู",
        "category": "ร้านอาหาร",
        "sub_category": "อื่นๆ"
      },
      "type": "Feature"
    },
    {
      "geometry": {
        "coordinates": [
          99.021008,
          18.890344
        ],
        "type": "Point"
      },
      "properties": {
        "name": "หมูปิ้ง ลุงรอด",
        "category": "ร้านอาหาร",
        "sub_category": "อื่นๆ"
      },
      "type": "Feature"
    },
    {
      "geometry": {
        "coordinates": [
          98.9426623,
          18.7660921
        ],
        "type": "Point"
      },
      "properties": {
        "name": "ร้านเมาสบู่ ก๋วยจั๊บญวน",
        "category": "ร้านอาหาร",
        "sub_category": "ก๋วยเตี๋ยว ก๋วยจั๊บ"
      },
      "type": "Feature"
    },
    {
      "geometry": {
        "coordinates": [
          99.0208919,
          18.8905621
        ],
        "type": "Point"
      },
      "properties": {
        "name": "เปาติ่มซำ",
        "category": "ร้านอาหาร",
        "sub_category": "อาหารจีน"
      },
      "type": "Feature"
    },
    {
      "geometry": {
        "coordinates": [
          99.020775,
          18.890561
        ],
        "type": "Point"
      },
      "properties": {
        "name": "ชามุกอี้เหวิน พี่ดวง",
        "category": "ร้านอาหาร",
        "sub_category": "ของหวาน ไอศกรีม เบเกอรี่ เครื่องดื่ม"
      },
      "type": "Feature"
    },
    {
      "geometry": {
        "coordinates": [
          99.0092947,
          18.8869395
        ],
        "type": "Point"
      },
      "properties": {
        "name": "ลาบลุงทิศ",
        "category": "ร้านอาหาร",
        "sub_category": "อาหารเหนือ"
      },
      "type": "Feature"
    },
    {
      "geometry": {
        "coordinates": [
          99.047978,
          18.785703
        ],
        "type": "Point"
      },
      "properties": {
        "name": "สวัสดิ์ผ้าฝ้าย",
        "category": "แฟชั่น",
        "sub_category": "ร้านขายเสื้อผ้า / เครื่องประดับ / สินค้าแฟชั่น"
      },
      "type": "Feature"
    },
    {
      "geometry": {
        "coordinates": [
          99.047856,
          18.785323
        ],
        "type": "Point"
      },
      "properties": {
        "name": "พิศมัยผ้าฝ้าย",
        "category": "ซุปเปอร์มาร์เก็ต/ขายของใช้/ขายของชำ/มินิมาร์ท/ตลาดสด",
        "sub_category": "ร้านขายของใช้ / อุปกรณ์"
      },
      "type": "Feature"
    },
    {
      "geometry": {
        "coordinates": [
          99.05503,
          18.785889
        ],
        "type": "Point"
      },
      "properties": {
        "name": "นม ปัง เจียว",
        "category": "ร้านอาหาร",
        "sub_category": "ของหวาน ไอศกรีม เบเกอรี่ เครื่องดื่ม"
      },
      "type": "Feature"
    },
    {
      "geometry": {
        "coordinates": [
          99.0477,
          18.785402
        ],
        "type": "Point"
      },
      "properties": {
        "name": "RATTINAN SHOP",
        "category": "แฟชั่น",
        "sub_category": "ร้านขายเสื้อผ้า / เครื่องประดับ / สินค้าแฟชั่น"
      },
      "type": "Feature"
    },
    {
      "geometry": {
        "coordinates": [
          99.047767,
          18.785244
        ],
        "type": "Point"
      },
      "properties": {
        "name": "สุริน จรูญทวีชัยกุล",
        "category": "กิจการ OTOP",
        "sub_category": "ผลิตภัณฑ์ผ้า/เครื่องแต่งกาย/เครื่องประดับ"
      },
      "type": "Feature"
    },
    {
      "geometry": {
        "coordinates": [
          99.047723,
          18.785238
        ],
        "type": "Point"
      },
      "properties": {
        "name": "ร้านสวนคุณรัศม์",
        "category": "ร้านอาหาร",
        "sub_category": "อาหารทั่วไป อาหารตามสั่ง อาหารจานเดียว"
      },
      "type": "Feature"
    },
    {
      "geometry": {
        "coordinates": [
          99.047665,
          18.785093
        ],
        "type": "Point"
      },
      "properties": {
        "name": "จิตราผ้ายดอยแม่ปั๋งอาภรณ์",
        "category": "ซุปเปอร์มาร์เก็ต/ขายของใช้/ขายของชำ/มินิมาร์ท/ตลาดสด",
        "sub_category": "มินิมาร์ท / ร้านขายของชำ"
      },
      "type": "Feature"
    },
    {
      "geometry": {
        "coordinates": [
          99.050223,
          18.783998
        ],
        "type": "Point"
      },
      "properties": {
        "name": "ไก่ทอดเที่ยงคืน สาขา 2.3",
        "category": "ร้านอาหาร",
        "sub_category": "อาหารเหนือ"
      },
      "type": "Feature"
    },
    {
      "geometry": {
        "coordinates": [
          99.051518,
          18.782718
        ],
        "type": "Point"
      },
      "properties": {
        "name": "ป้าตุ้ย ผลไม้",
        "category": "ร้านอาหาร",
        "sub_category": "ร้านขายผลไม้ / ร้านขายผัก"
      },
      "type": "Feature"
    },
    {
      "geometry": {
        "coordinates": [
          99.0532784,
          18.7815065
        ],
        "type": "Point"
      },
      "properties": {
        "name": "สวนอาหารเชียงใหม่เรือนแพ1",
        "category": "ร้านอาหาร",
        "sub_category": "อื่นๆ"
      },
      "type": "Feature"
    },
    {
      "geometry": {
        "coordinates": [
          99.051399,
          18.781002
        ],
        "type": "Point"
      },
      "properties": {
        "name": "เนาวรัตน์ น้อยอ่ำ",
        "category": "สุขภาพ/ความงาม",
        "sub_category": "ร้านขายเครื่องสำอางและบำรุงผิวพรรณ"
      },
      "type": "Feature"
    },
    {
      "geometry": {
        "coordinates": [
          99.0424,
          18.7871031
        ],
        "type": "Point"
      },
      "properties": {
        "name": "หนูมาลีชาบู",
        "category": "ร้านอาหาร",
        "sub_category": "บุฟเฟ่ต์"
      },
      "type": "Feature"
    },
    {
      "geometry": {
        "coordinates": [
          99.0399992,
          18.787987
        ],
        "type": "Point"
      },
      "properties": {
        "name": "ครัวไทยสไปซี่",
        "category": "ร้านอาหาร",
        "sub_category": "อาหารทั่วไป อาหารตามสั่ง อาหารจานเดียว"
      },
      "type": "Feature"
    },
    {
      "geometry": {
        "coordinates": [
          99.049464,
          18.7785951
        ],
        "type": "Point"
      },
      "properties": {
        "name": "โจ๊กบางกอก",
        "category": "ร้านอาหาร",
        "sub_category": "อาหารทั่วไป อาหารตามสั่ง อาหารจานเดียว"
      },
      "type": "Feature"
    },
    {
      "geometry": {
        "coordinates": [
          99.050029,
          18.778436
        ],
        "type": "Point"
      },
      "properties": {
        "name": "อาหารปักษ์ใต้ นครศรีธรรมราช",
        "category": "ร้านอาหาร/เครื่องดื่ม",
        "sub_category": ""
      },
      "type": "Feature"
    },
    {
      "geometry": {
        "coordinates": [
          99.049267,
          18.778495
        ],
        "type": "Point"
      },
      "properties": {
        "name": "ยายทองอินทร์",
        "category": "ร้านอาหาร",
        "sub_category": "อาหารทั่วไป อาหารตามสั่ง อาหารจานเดียว"
      },
      "type": "Feature"
    },
    {
      "geometry": {
        "coordinates": [
          99.059806,
          18.781859
        ],
        "type": "Point"
      },
      "properties": {
        "name": "ร้องขุ่นพาณิชย์",
        "category": "ร้านค้าท้องถิ่น/ผลิตภัณฑ์ชุมชน/OTOP",
        "sub_category": ""
      },
      "type": "Feature"
    },
    {
      "geometry": {
        "coordinates": [
          99.041723,
          18.796125
        ],
        "type": "Point"
      },
      "properties": {
        "name": "BCOZILY",
        "category": "ร้านอาหาร",
        "sub_category": "ของหวาน ไอศกรีม เบเกอรี่ เครื่องดื่ม"
      },
      "type": "Feature"
    },
    {
      "geometry": {
        "coordinates": [
          99.014424,
          18.878618
        ],
        "type": "Point"
      },
      "properties": {
        "name": "ร้านดาว",
        "category": "แฟชั่น",
        "sub_category": "ร้านขายเสื้อผ้า / เครื่องประดับ / สินค้าแฟชั่น"
      },
      "type": "Feature"
    },
    {
      "geometry": {
        "coordinates": [
          98.96226,
          18.743022
        ],
        "type": "Point"
      },
      "properties": {
        "name": "ณปภัช นายลู",
        "category": "ร้านอาหาร",
        "sub_category": "ของหวาน ไอศกรีม เบเกอรี่ เครื่องดื่ม"
      },
      "type": "Feature"
    },
    {
      "geometry": {
        "coordinates": [
          98.950443,
          18.800558
        ],
        "type": "Point"
      },
      "properties": {
        "name": "อรรถพล แสงสุวรรณ",
        "category": "ร้านอาหาร",
        "sub_category": "ของหวาน ไอศกรีม เบเกอรี่ เครื่องดื่ม"
      },
      "type": "Feature"
    },
    {
      "geometry": {
        "coordinates": [
          98.961755,
          18.74367
        ],
        "type": "Point"
      },
      "properties": {
        "name": "วีรพา ตาเตอะ",
        "category": "แฟชั่น",
        "sub_category": "ร้านขายเสื้อผ้า / เครื่องประดับ / สินค้าแฟชั่น"
      },
      "type": "Feature"
    },
    {
      "geometry": {
        "coordinates": [
          99.014018,
          18.878682
        ],
        "type": "Point"
      },
      "properties": {
        "name": "ร้านน้องกระแต",
        "category": "ร้านอาหาร",
        "sub_category": "อาหารว่าง ขนม ของกินเล่น"
      },
      "type": "Feature"
    },
    {
      "geometry": {
        "coordinates": [
          98.950384,
          18.802083
        ],
        "type": "Point"
      },
      "properties": {
        "name": "ร้านของว่าง คณะสังคมศาสตร์",
        "category": "ร้านอาหาร/เครื่องดื่ม",
        "sub_category": ""
      },
      "type": "Feature"
    },
    {
      "geometry": {
        "coordinates": [
          98.950337,
          18.802028
        ],
        "type": "Point"
      },
      "properties": {
        "name": "ข้าวราดแกง วันเพ็ญ",
        "category": "ร้านอาหาร/เครื่องดื่ม",
        "sub_category": ""
      },
      "type": "Feature"
    },
    {
      "geometry": {
        "coordinates": [
          98.961451,
          18.743767
        ],
        "type": "Point"
      },
      "properties": {
        "name": "ธีรยุทธ ปูเรือน",
        "category": "ซุปเปอร์มาร์เก็ต/ขายของใช้/ขายของชำ/มินิมาร์ท/ตลาดสด",
        "sub_category": "ร้านขายของใช้ / อุปกรณ์"
      },
      "type": "Feature"
    },
    {
      "geometry": {
        "coordinates": [
          98.97075,
          18.848197
        ],
        "type": "Point"
      },
      "properties": {
        "name": "ร้านทรัพย์ทองดี",
        "category": "ซุปเปอร์มาร์เก็ต/ขายของใช้/ขายของชำ/มินิมาร์ท/ตลาดสด",
        "sub_category": "มินิมาร์ท / ร้านขายของชำ"
      },
      "type": "Feature"
    },
    {
      "geometry": {
        "coordinates": [
          99.11552418318436,
          18.86370299462578
        ],
        "type": "Point"
      },
      "properties": {
        "name": "ก๋วยเตี๋ยวเป็ดดอยสะเก็ด",
        "category": "ร้านอาหาร",
        "sub_category": "ก๋วยเตี๋ยว ก๋วยจั๊บ"
      },
      "type": "Feature"
    },
    {
      "geometry": {
        "coordinates": [
          98.949508,
          18.794295
        ],
        "type": "Point"
      },
      "properties": {
        "name": "เจนจิรา คงกฤตยานุกุล",
        "category": "ร้านอาหาร",
        "sub_category": "อาหารทั่วไป อาหารตามสั่ง อาหารจานเดียว"
      },
      "type": "Feature"
    },
    {
      "geometry": {
        "coordinates": [
          98.961467,
          18.743575
        ],
        "type": "Point"
      },
      "properties": {
        "name": "อิมโมบาย",
        "category": "ร้านค้าทั่วไป",
        "sub_category": ""
      },
      "type": "Feature"
    },
    {
      "geometry": {
        "coordinates": [
          98.961543,
          18.743338
        ],
        "type": "Point"
      },
      "properties": {
        "name": "กล้าณรงค์ วัฒนะมิตร",
        "category": "แฟชั่น",
        "sub_category": "ร้านขายเสื้อผ้า / เครื่องประดับ / สินค้าแฟชั่น"
      },
      "type": "Feature"
    },
    {
      "geometry": {
        "coordinates": [
          98.961484,
          18.743418
        ],
        "type": "Point"
      },
      "properties": {
        "name": "ร้าน CITRUS",
        "category": "สุขภาพ/ความงาม",
        "sub_category": "ร้านขายยาและอาหารเสริม"
      },
      "type": "Feature"
    },
    {
      "geometry": {
        "coordinates": [
          99.046662,
          18.692785
        ],
        "type": "Point"
      },
      "properties": {
        "name": "ข้าวซอยคุณหญิง",
        "category": "ร้านอาหาร",
        "sub_category": "อาหารทั่วไป อาหารตามสั่ง อาหารจานเดียว"
      },
      "type": "Feature"
    },
    {
      "geometry": {
        "coordinates": [
          98.961415,
          18.743356
        ],
        "type": "Point"
      },
      "properties": {
        "name": "นางไพศรี  ทายะ",
        "category": "ร้านค้าธงฟ้า",
        "sub_category": ""
      },
      "type": "Feature"
    },
    {
      "geometry": {
        "coordinates": [
          98.961398,
          18.743372
        ],
        "type": "Point"
      },
      "properties": {
        "name": "นพรัตน์ ถิ่นคง",
        "category": "ร้านอาหาร",
        "sub_category": "อาหารว่าง ขนม ของกินเล่น"
      },
      "type": "Feature"
    },
    {
      "geometry": {
        "coordinates": [
          98.961374,
          18.743354
        ],
        "type": "Point"
      },
      "properties": {
        "name": "แจ่มแจ้ง ยศใจสุรินทร์",
        "category": "ร้านอาหาร",
        "sub_category": "อาหารทั่วไป อาหารตามสั่ง อาหารจานเดียว"
      },
      "type": "Feature"
    },
    {
      "geometry": {
        "coordinates": [
          98.990404,
          18.775296
        ],
        "type": "Point"
      },
      "properties": {
        "name": "ภัสสรา จันทรังษี",
        "category": "แฟชั่น",
        "sub_category": "ร้านขายเสื้อผ้า / เครื่องประดับ / สินค้าแฟชั่น"
      },
      "type": "Feature"
    },
    {
      "geometry": {
        "coordinates": [
          99.014122,
          18.74151
        ],
        "type": "Point"
      },
      "properties": {
        "name": "ซุ้มอาหารไทย",
        "category": "ร้านอาหาร",
        "sub_category": "อาหารทั่วไป อาหารตามสั่ง อาหารจานเดียว"
      },
      "type": "Feature"
    },
    {
      "geometry": {
        "coordinates": [
          98.995939,
          18.761367
        ],
        "type": "Point"
      },
      "properties": {
        "name": "ฟาร์มาเมด",
        "category": "สุขภาพ/ความงาม",
        "sub_category": "ร้านขายยาและอาหารเสริม"
      },
      "type": "Feature"
    },
    {
      "geometry": {
        "coordinates": [
          99.0028731,
          18.7515187
        ],
        "type": "Point"
      },
      "properties": {
        "name": "กาแฟดอยหลวงหนองหอย",
        "category": "ร้านอาหาร",
        "sub_category": "ของหวาน ไอศกรีม เบเกอรี่ เครื่องดื่ม"
      },
      "type": "Feature"
    },
    {
      "geometry": {
        "coordinates": [
          98.995382,
          18.762191
        ],
        "type": "Point"
      },
      "properties": {
        "name": "ครัวเพชรดอยงาม",
        "category": "ร้านอาหาร",
        "sub_category": "อาหารทั่วไป อาหารตามสั่ง อาหารจานเดียว"
      },
      "type": "Feature"
    },
    {
      "geometry": {
        "coordinates": [
          98.990275,
          18.774925
        ],
        "type": "Point"
      },
      "properties": {
        "name": "สุทธิพร มูลตา",
        "category": "ซุปเปอร์มาร์เก็ต/ขายของใช้/ขายของชำ/มินิมาร์ท/ตลาดสด",
        "sub_category": "มินิมาร์ท / ร้านขายของชำ"
      },
      "type": "Feature"
    },
    {
      "geometry": {
        "coordinates": [
          98.996315,
          18.76038
        ],
        "type": "Point"
      },
      "properties": {
        "name": "ข้าวมันไก่ดูไบ",
        "category": "ร้านอาหาร",
        "sub_category": "อาหารทั่วไป อาหารตามสั่ง อาหารจานเดียว"
      },
      "type": "Feature"
    },
    {
      "geometry": {
        "coordinates": [
          98.98865707218647,
          18.783622500257955
        ],
        "type": "Point"
      },
      "properties": {
        "name": "ชาช่าบับเบิ้ลที",
        "category": "ร้านอาหาร",
        "sub_category": "ของหวาน ไอศกรีม เบเกอรี่ เครื่องดื่ม"
      },
      "type": "Feature"
    },
    {
      "geometry": {
        "coordinates": [
          98.990114,
          18.775285
        ],
        "type": "Point"
      },
      "properties": {
        "name": "สวิตตา จันทรังษี",
        "category": "แฟชั่น",
        "sub_category": "ร้านขายเสื้อผ้า / เครื่องประดับ / สินค้าแฟชั่น"
      },
      "type": "Feature"
    },
    {
      "geometry": {
        "coordinates": [
          98.9901358617801,
          18.775123501161698
        ],
        "type": "Point"
      },
      "properties": {
        "name": "ฮักงามอินเทรนด์",
        "category": "สุขภาพ/ความงาม",
        "sub_category": "ร้านขายเครื่องสำอางและบำรุงผิวพรรณ"
      },
      "type": "Feature"
    },
    {
      "geometry": {
        "coordinates": [
          98.990637,
          18.805119
        ],
        "type": "Point"
      },
      "properties": {
        "name": "รักษาผัดไทย",
        "category": "ร้านอาหาร",
        "sub_category": "อาหารทั่วไป อาหารตามสั่ง อาหารจานเดียว"
      },
      "type": "Feature"
    },
    {
      "geometry": {
        "coordinates": [
          98.98868341240583,
          18.795445668173357
        ],
        "type": "Point"
      },
      "properties": {
        "name": "ซูซิเก็กโกะ",
        "category": "ร้านอาหาร",
        "sub_category": "ร้านอาหารญี่ปุ่น"
      },
      "type": "Feature"
    },
    {
      "geometry": {
        "coordinates": [
          98.98878,
          18.782079
        ],
        "type": "Point"
      },
      "properties": {
        "name": "ร้านไส้อั่วป้าคำ",
        "category": "ร้านอาหาร/เครื่องดื่ม",
        "sub_category": ""
      },
      "type": "Feature"
    },
    {
      "geometry": {
        "coordinates": [
          98.990114,
          18.775105
        ],
        "type": "Point"
      },
      "properties": {
        "name": "ชนิดาภา จันทรงกุล",
        "category": "ร้านอาหาร",
        "sub_category": "ของหวาน ไอศกรีม เบเกอรี่ เครื่องดื่ม"
      },
      "type": "Feature"
    },
    {
      "geometry": {
        "coordinates": [
          98.994186,
          18.814496
        ],
        "type": "Point"
      },
      "properties": {
        "name": "สมจินตนา มนัสพรพงศ์",
        "category": "ร้านอาหาร",
        "sub_category": "ของหวาน ไอศกรีม เบเกอรี่ เครื่องดื่ม"
      },
      "type": "Feature"
    },
    {
      "geometry": {
        "coordinates": [
          98.988987,
          18.779798
        ],
        "type": "Point"
      },
      "properties": {
        "name": "สไมล์เฮ้าส์",
        "category": "ร้านอาหาร",
        "sub_category": "ของหวาน ไอศกรีม เบเกอรี่ เครื่องดื่ม"
      },
      "type": "Feature"
    },
    {
      "geometry": {
        "coordinates": [
          98.988734,
          18.781251
        ],
        "type": "Point"
      },
      "properties": {
        "name": "ก๋วยเตี๋ยวต้มยำมะนาวกำแพงเพชร",
        "category": "ร้านอาหาร",
        "sub_category": "ก๋วยเตี๋ยว ก๋วยจั๊บ"
      },
      "type": "Feature"
    },
    {
      "geometry": {
        "coordinates": [
          98.988243,
          18.786389
        ],
        "type": "Point"
      },
      "properties": {
        "name": "ผ้าคลุมไหล่แม่ตู่",
        "category": "แฟชั่น",
        "sub_category": "ร้านขายเสื้อผ้า / เครื่องประดับ / สินค้าแฟชั่น"
      },
      "type": "Feature"
    },
    {
      "geometry": {
        "coordinates": [
          98.96129,
          18.79042
        ],
        "type": "Point"
      },
      "properties": {
        "name": "ไส้อั่วแม่หนิม",
        "category": "ร้านค้าธงฟ้า",
        "sub_category": ""
      },
      "type": "Feature"
    },
    {
      "geometry": {
        "coordinates": [
          98.96123886108398,
          18.789741607418602
        ],
        "type": "Point"
      },
      "properties": {
        "name": "ร้านแก่นชัยอาหารอีสาน",
        "category": "ร้านอาหาร",
        "sub_category": "ร้านอาหารอีสาน"
      },
      "type": "Feature"
    },
    {
      "geometry": {
        "coordinates": [
          98.961242,
          18.79039
        ],
        "type": "Point"
      },
      "properties": {
        "name": "ร้านน้องก้อยของฝากจากเชียงใหม่",
        "category": "ร้านค้าธงฟ้า",
        "sub_category": ""
      },
      "type": "Feature"
    },
    {
      "geometry": {
        "coordinates": [
          99.1374865,
          18.8128409
        ],
        "type": "Point"
      },
      "properties": {
        "name": "ต้นดอย",
        "category": "ร้านอาหาร",
        "sub_category": "ของหวาน ไอศกรีม เบเกอรี่ เครื่องดื่ม"
      },
      "type": "Feature"
    },
    {
      "geometry": {
        "coordinates": [
          98.961201,
          18.79045
        ],
        "type": "Point"
      },
      "properties": {
        "name": "ฉันทนา ทิพย์เดโช",
        "category": "ซุปเปอร์มาร์เก็ต/ขายของใช้/ขายของชำ/มินิมาร์ท/ตลาดสด",
        "sub_category": "มินิมาร์ท / ร้านขายของชำ"
      },
      "type": "Feature"
    },
    {
      "geometry": {
        "coordinates": [
          98.961196,
          18.790698
        ],
        "type": "Point"
      },
      "properties": {
        "name": "ผลไม้ 24 ชม.",
        "category": "ร้านอาหาร",
        "sub_category": "ร้านขายผลไม้ / ร้านขายผัก"
      },
      "type": "Feature"
    },
    {
      "geometry": {
        "coordinates": [
          98.961168,
          18.790347
        ],
        "type": "Point"
      },
      "properties": {
        "name": "ธนาคม อุปะทาย",
        "category": "ซุปเปอร์มาร์เก็ต/ขายของใช้/ขายของชำ/มินิมาร์ท/ตลาดสด",
        "sub_category": "มินิมาร์ท / ร้านขายของชำ"
      },
      "type": "Feature"
    },
    {
      "geometry": {
        "coordinates": [
          98.978841,
          18.738467
        ],
        "type": "Point"
      },
      "properties": {
        "name": "ซอล์ท แอนด์ ไลท์",
        "category": "ร้านอาหาร",
        "sub_category": "ของหวาน ไอศกรีม เบเกอรี่ เครื่องดื่ม"
      },
      "type": "Feature"
    },
    {
      "geometry": {
        "coordinates": [
          98.991611,
          18.853073
        ],
        "type": "Point"
      },
      "properties": {
        "name": "โหน่ง ลูกชิ้นทอด",
        "category": "ร้านอาหาร",
        "sub_category": "อาหารว่าง ขนม ของกินเล่น"
      },
      "type": "Feature"
    },
    {
      "geometry": {
        "coordinates": [
          98.975538,
          18.835435
        ],
        "type": "Point"
      },
      "properties": {
        "name": "ซ๊ฌ๕ฑ๊เครื่องเงิน",
        "category": "กิจการ OTOP",
        "sub_category": "ผลิตภัณฑ์ของใช้/ของตกแต่ง/ของที่ระลึก"
      },
      "type": "Feature"
    },
    {
      "geometry": {
        "coordinates": [
          98.96112218499184,
          18.78738642182779
        ],
        "type": "Point"
      },
      "properties": {
        "name": "ก๋วยเตบ้านคุ้ม",
        "category": "ร้านอาหาร",
        "sub_category": "อาหารเหนือ"
      },
      "type": "Feature"
    },
    {
      "geometry": {
        "coordinates": [
          99.1247,
          18.7401
        ],
        "type": "Point"
      },
      "properties": {
        "name": "ป๊อปเกรียน",
        "category": "ร้านอาหาร",
        "sub_category": "ของหวาน ไอศกรีม เบเกอรี่ เครื่องดื่ม"
      },
      "type": "Feature"
    },
    {
      "geometry": {
        "coordinates": [
          99.051751,
          18.874397
        ],
        "type": "Point"
      },
      "properties": {
        "name": "ลุงอู๊ดขายผ้า",
        "category": "ร้านค้าธงฟ้า",
        "sub_category": ""
      },
      "type": "Feature"
    },
    {
      "geometry": {
        "coordinates": [
          99.051574,
          18.874413
        ],
        "type": "Point"
      },
      "properties": {
        "name": "บางเขนคอฟฟี่",
        "category": "ร้านอาหาร",
        "sub_category": "ของหวาน ไอศกรีม เบเกอรี่ เครื่องดื่ม"
      },
      "type": "Feature"
    },
    {
      "geometry": {
        "coordinates": [
          98.9800891,
          18.8416013
        ],
        "type": "Point"
      },
      "properties": {
        "name": "ร้านลุงแปด กะเพราจัดจ้าน",
        "category": "ร้านอาหาร",
        "sub_category": "อาหารทั่วไป อาหารตามสั่ง อาหารจานเดียว"
      },
      "type": "Feature"
    },
    {
      "geometry": {
        "coordinates": [
          98.979822,
          18.841284
        ],
        "type": "Point"
      },
      "properties": {
        "name": "เตาดินหมูกะทะ",
        "category": "ร้านอาหาร",
        "sub_category": "ปิ้งย่าง หมูกะทะ"
      },
      "type": "Feature"
    },
    {
      "geometry": {
        "coordinates": [
          99.124561,
          18.739819
        ],
        "type": "Point"
      },
      "properties": {
        "name": "ไมโลดิบ",
        "category": "ร้านอาหาร",
        "sub_category": "ของหวาน ไอศกรีม เบเกอรี่ เครื่องดื่ม"
      },
      "type": "Feature"
    },
    {
      "geometry": {
        "coordinates": [
          98.963294,
          18.808381
        ],
        "type": "Point"
      },
      "properties": {
        "name": "ครัวใบเงิน",
        "category": "ร้านอาหาร",
        "sub_category": "อาหารทั่วไป อาหารตามสั่ง อาหารจานเดียว"
      },
      "type": "Feature"
    },
    {
      "geometry": {
        "coordinates": [
          98.973126,
          18.814962
        ],
        "type": "Point"
      },
      "properties": {
        "name": "MOMENTUM",
        "category": "แฟชั่น",
        "sub_category": "ร้านขายเสื้อผ้า / เครื่องประดับ / สินค้าแฟชั่น"
      },
      "type": "Feature"
    },
    {
      "geometry": {
        "coordinates": [
          98.973466,
          18.815937
        ],
        "type": "Point"
      },
      "properties": {
        "name": "ร้านทีเจเจที",
        "category": "แฟชั่น",
        "sub_category": "ร้านขายเสื้อผ้า / เครื่องประดับ / สินค้าแฟชั่น"
      },
      "type": "Feature"
    },
    {
      "geometry": {
        "coordinates": [
          99.045368,
          18.711109
        ],
        "type": "Point"
      },
      "properties": {
        "name": "ร้านอินทนิลคอฟฟี155",
        "category": "ร้านอาหาร/เครื่องดื่ม",
        "sub_category": ""
      },
      "type": "Feature"
    },
    {
      "geometry": {
        "coordinates": [
          98.969233,
          18.79999
        ],
        "type": "Point"
      },
      "properties": {
        "name": "ขนมหวานเจ้หมวย",
        "category": "ร้านอาหาร",
        "sub_category": "ของหวาน ไอศกรีม เบเกอรี่ เครื่องดื่ม"
      },
      "type": "Feature"
    },
    {
      "geometry": {
        "coordinates": [
          98.97854,
          18.751467
        ],
        "type": "Point"
      },
      "properties": {
        "name": "ฉัตรชัยดารค้า",
        "category": "ซุปเปอร์มาร์เก็ต/ขายของใช้/ขายของชำ/มินิมาร์ท/ตลาดสด",
        "sub_category": "มินิมาร์ท / ร้านขายของชำ"
      },
      "type": "Feature"
    },
    {
      "geometry": {
        "coordinates": [
          98.974018,
          18.818026
        ],
        "type": "Point"
      },
      "properties": {
        "name": "ศราวุธ จันทร์สว่าง",
        "category": "ร้านอาหาร",
        "sub_category": "อาหารทั่วไป อาหารตามสั่ง อาหารจานเดียว"
      },
      "type": "Feature"
    },
    {
      "geometry": {
        "coordinates": [
          99.11830097436905,
          18.743096457001048
        ],
        "type": "Point"
      },
      "properties": {
        "name": "ข้าวซอยสมุนไพร",
        "category": "ร้านอาหาร",
        "sub_category": "อาหารทั่วไป อาหารตามสั่ง อาหารจานเดียว"
      },
      "type": "Feature"
    },
    {
      "geometry": {
        "coordinates": [
          98.96845491579431,
          18.79606369539218
        ],
        "type": "Point"
      },
      "properties": {
        "name": "ซีนนิมมาน (ครัวคนเมือง)",
        "category": "ร้านอาหาร",
        "sub_category": "อาหารทั่วไป อาหารตามสั่ง อาหารจานเดียว"
      },
      "type": "Feature"
    },
    {
      "geometry": {
        "coordinates": [
          98.968516,
          18.796712
        ],
        "type": "Point"
      },
      "properties": {
        "name": "กชมน สวนศิลป์พงศ์",
        "category": "ซุปเปอร์มาร์เก็ต/ขายของใช้/ขายของชำ/มินิมาร์ท/ตลาดสด",
        "sub_category": "ร้านขายของใช้ / อุปกรณ์"
      },
      "type": "Feature"
    },
    {
      "geometry": {
        "coordinates": [
          98.96885624067522,
          18.79981836271171
        ],
        "type": "Point"
      },
      "properties": {
        "name": "เลดี้ฟรุ้ต และ ผัดไทยนิมมาน",
        "category": "ร้านอาหาร",
        "sub_category": "ร้านขายผลไม้ / ร้านขายผัก"
      },
      "type": "Feature"
    },
    {
      "geometry": {
        "coordinates": [
          98.97216081619263,
          18.813560775486703
        ],
        "type": "Point"
      },
      "properties": {
        "name": "มุกหอม",
        "category": "ร้านอาหาร",
        "sub_category": "ของหวาน ไอศกรีม เบเกอรี่ เครื่องดื่ม"
      },
      "type": "Feature"
    },
    {
      "geometry": {
        "coordinates": [
          98.9688335,
          18.7999006
        ],
        "type": "Point"
      },
      "properties": {
        "name": "ฟู้ดบาร์29",
        "category": "ร้านอาหาร",
        "sub_category": "อาหารทั่วไป อาหารตามสั่ง อาหารจานเดียว"
      },
      "type": "Feature"
    },
    {
      "geometry": {
        "coordinates": [
          98.9687862757475,
          18.79973918875928
        ],
        "type": "Point"
      },
      "properties": {
        "name": "มิว ดงบูริ",
        "category": "ร้านอาหาร",
        "sub_category": "ร้านอาหารญี่ปุ่น"
      },
      "type": "Feature"
    },
    {
      "geometry": {
        "coordinates": [
          98.9682502,
          18.7949546
        ],
        "type": "Point"
      },
      "properties": {
        "name": "จริณพาย",
        "category": "ร้านอาหาร",
        "sub_category": "อื่นๆ"
      },
      "type": "Feature"
    },
    {
      "geometry": {
        "coordinates": [
          98.96960844218601,
          18.804522926972144
        ],
        "type": "Point"
      },
      "properties": {
        "name": "ครัวคุณโจ้",
        "category": "ร้านอาหาร",
        "sub_category": "อาหารทั่วไป อาหารตามสั่ง อาหารจานเดียว"
      },
      "type": "Feature"
    },
    {
      "geometry": {
        "coordinates": [
          98.968608,
          18.798791
        ],
        "type": "Point"
      },
      "properties": {
        "name": "มานิเฟรชโต้",
        "category": "ร้านอาหาร",
        "sub_category": "อาหารนานาชาติ"
      },
      "type": "Feature"
    },
    {
      "geometry": {
        "coordinates": [
          99.038497,
          18.711336
        ],
        "type": "Point"
      },
      "properties": {
        "name": "พจนา ฟู่เจริญ",
        "category": "ร้านอาหาร",
        "sub_category": "อาหารว่าง ขนม ของกินเล่น"
      },
      "type": "Feature"
    },
    {
      "geometry": {
        "coordinates": [
          98.968396,
          18.797577
        ],
        "type": "Point"
      },
      "properties": {
        "name": "ยู มี เชียงใหม่",
        "category": "ร้านค้าทั่วไป",
        "sub_category": ""
      },
      "type": "Feature"
    },
    {
      "geometry": {
        "coordinates": [
          98.97798979138119,
          18.770809530787016
        ],
        "type": "Point"
      },
      "properties": {
        "name": "กิวนุกุ ชาบู",
        "category": "ร้านอาหาร",
        "sub_category": "ชาบู สุกี้ยากี้ หม้อไฟ"
      },
      "type": "Feature"
    },
    {
      "geometry": {
        "coordinates": [
          98.977653,
          18.77192
        ],
        "type": "Point"
      },
      "properties": {
        "name": "อนันต์ กาวิน",
        "category": "ร้านอาหาร",
        "sub_category": "อาหารทั่วไป อาหารตามสั่ง อาหารจานเดียว"
      },
      "type": "Feature"
    },
    {
      "geometry": {
        "coordinates": [
          98.976962,
          18.774677
        ],
        "type": "Point"
      },
      "properties": {
        "name": "บีฟแลนด์ สเต็กเฮ้าส์",
        "category": "ร้านอาหาร",
        "sub_category": "อาหารนานาชาติ"
      },
      "type": "Feature"
    },
    {
      "geometry": {
        "coordinates": [
          98.998318,
          18.840574
        ],
        "type": "Point"
      },
      "properties": {
        "name": "ชาบูหมู6",
        "category": "ร้านอาหาร",
        "sub_category": "ชาบู สุกี้ยากี้ หม้อไฟ"
      },
      "type": "Feature"
    },
    {
      "geometry": {
        "coordinates": [
          99.1133412,
          18.7483268
        ],
        "type": "Point"
      },
      "properties": {
        "name": "นิ่มคาเฟ",
        "category": "ร้านอาหาร",
        "sub_category": "ของหวาน ไอศกรีม เบเกอรี่ เครื่องดื่ม"
      },
      "type": "Feature"
    },
    {
      "geometry": {
        "coordinates": [
          99.02399,
          18.856119
        ],
        "type": "Point"
      },
      "properties": {
        "name": "ร้านขนมจีนป้าพิน",
        "category": "ร้านอาหาร",
        "sub_category": "อาหารเหนือ"
      },
      "type": "Feature"
    },
    {
      "geometry": {
        "coordinates": [
          98.975677,
          18.795671
        ],
        "type": "Point"
      },
      "properties": {
        "name": "เป็ดพะโล้นครไชยศรี",
        "category": "ร้านค้าธงฟ้า",
        "sub_category": ""
      },
      "type": "Feature"
    },
    {
      "geometry": {
        "coordinates": [
          98.998559,
          18.840884
        ],
        "type": "Point"
      },
      "properties": {
        "name": "รุ่งโรจน์ ภักดีแดง",
        "category": "ซุปเปอร์มาร์เก็ต/ขายของใช้/ขายของชำ/มินิมาร์ท/ตลาดสด",
        "sub_category": "มินิมาร์ท / ร้านขายของชำ"
      },
      "type": "Feature"
    },
    {
      "geometry": {
        "coordinates": [
          98.998528,
          18.840867
        ],
        "type": "Point"
      },
      "properties": {
        "name": "ภัสสร เจียรสันติ",
        "category": "ร้านอาหาร",
        "sub_category": "อาหารทั่วไป อาหารตามสั่ง อาหารจานเดียว"
      },
      "type": "Feature"
    },
    {
      "geometry": {
        "coordinates": [
          98.975635,
          18.796129
        ],
        "type": "Point"
      },
      "properties": {
        "name": "พี่เกษ",
        "category": "ร้านค้าท้องถิ่น/ผลิตภัณฑ์ชุมชน/OTOP",
        "sub_category": ""
      },
      "type": "Feature"
    },
    {
      "geometry": {
        "coordinates": [
          98.998458,
          18.840847
        ],
        "type": "Point"
      },
      "properties": {
        "name": "พานทอง ปิ่นหย่า",
        "category": "ร้านอาหาร",
        "sub_category": "ของหวาน ไอศกรีม เบเกอรี่ เครื่องดื่ม"
      },
      "type": "Feature"
    },
    {
      "geometry": {
        "coordinates": [
          98.976751,
          18.803336
        ],
        "type": "Point"
      },
      "properties": {
        "name": "สมเจตน์ จันทร์ศิริเกียรติ",
        "category": "ร้านอาหาร",
        "sub_category": "อาหารทั่วไป อาหารตามสั่ง อาหารจานเดียว"
      },
      "type": "Feature"
    },
    {
      "geometry": {
        "coordinates": [
          98.975623,
          18.796567
        ],
        "type": "Point"
      },
      "properties": {
        "name": "พงษ์เอื้อ ขอดคำ",
        "category": "งานบริการอื่นๆ / เบ็ดเตล็ด",
        "sub_category": "สินค้า และ บริการ เกี่ยวกับการตกแต่งบ้าน"
      },
      "type": "Feature"
    },
    {
      "geometry": {
        "coordinates": [
          98.975529,
          18.796193
        ],
        "type": "Point"
      },
      "properties": {
        "name": "กาแฟสดดอยตุง",
        "category": "ร้านอาหาร/เครื่องดื่ม",
        "sub_category": ""
      },
      "type": "Feature"
    },
    {
      "geometry": {
        "coordinates": [
          98.97858738899231,
          18.81059784547209
        ],
        "type": "Point"
      },
      "properties": {
        "name": "หลู้ ไฮเวย์",
        "category": "ร้านอาหาร",
        "sub_category": "อาหารทั่วไป อาหารตามสั่ง อาหารจานเดียว"
      },
      "type": "Feature"
    },
    {
      "geometry": {
        "coordinates": [
          98.99803,
          18.840633
        ],
        "type": "Point"
      },
      "properties": {
        "name": "อัยซูชิ ห้วยแก้ว",
        "category": "ร้านอาหาร",
        "sub_category": "ร้านอาหารญี่ปุ่น"
      },
      "type": "Feature"
    },
    {
      "geometry": {
        "coordinates": [
          99.02683773999699,
          18.72101519306383
        ],
        "type": "Point"
      },
      "properties": {
        "name": "เนื้อตุ๋นยางเนิ้ง",
        "category": "ร้านอาหาร",
        "sub_category": "ก๋วยเตี๋ยว ก๋วยจั๊บ"
      },
      "type": "Feature"
    },
    {
      "geometry": {
        "coordinates": [
          98.975442,
          18.795856
        ],
        "type": "Point"
      },
      "properties": {
        "name": "นลินาถ จ่าภา",
        "category": "ร้านอาหาร",
        "sub_category": "ของหวาน ไอศกรีม เบเกอรี่ เครื่องดื่ม"
      },
      "type": "Feature"
    },
    {
      "geometry": {
        "coordinates": [
          99.061073,
          18.690382
        ],
        "type": "Point"
      },
      "properties": {
        "name": "ปอ-ปาย",
        "category": "ร้านค้าธงฟ้า",
        "sub_category": ""
      },
      "type": "Feature"
    },
    {
      "geometry": {
        "coordinates": [
          98.971331,
          18.724626
        ],
        "type": "Point"
      },
      "properties": {
        "name": "ร้านโอ หม่าล่า 4 แยกหายยา",
        "category": "ร้านอาหาร/เครื่องดื่ม",
        "sub_category": ""
      },
      "type": "Feature"
    },
    {
      "geometry": {
        "coordinates": [
          98.959206,
          18.741191
        ],
        "type": "Point"
      },
      "properties": {
        "name": "ดาวทอง",
        "category": "ซุปเปอร์มาร์เก็ต/ขายของใช้/ขายของชำ/มินิมาร์ท/ตลาดสด",
        "sub_category": "มินิมาร์ท / ร้านขายของชำ"
      },
      "type": "Feature"
    },
    {
      "geometry": {
        "coordinates": [
          98.95914,
          18.741141
        ],
        "type": "Point"
      },
      "properties": {
        "name": "ร้านขาหมูกาแล",
        "category": "ร้านอาหาร",
        "sub_category": "อาหารทั่วไป อาหารตามสั่ง อาหารจานเดียว"
      },
      "type": "Feature"
    },
    {
      "geometry": {
        "coordinates": [
          98.959144,
          18.741132
        ],
        "type": "Point"
      },
      "properties": {
        "name": "ร้านมายมินท์",
        "category": "ซุปเปอร์มาร์เก็ต/ขายของใช้/ขายของชำ/มินิมาร์ท/ตลาดสด",
        "sub_category": "มินิมาร์ท / ร้านขายของชำ"
      },
      "type": "Feature"
    },
    {
      "geometry": {
        "coordinates": [
          98.959137,
          18.74114
        ],
        "type": "Point"
      },
      "properties": {
        "name": "ร้านพี่ชริน",
        "category": "ร้านอาหาร",
        "sub_category": "ของหวาน ไอศกรีม เบเกอรี่ เครื่องดื่ม"
      },
      "type": "Feature"
    },
    {
      "geometry": {
        "coordinates": [
          98.959125,
          18.74115
        ],
        "type": "Point"
      },
      "properties": {
        "name": "ลาบขมต้นโชค",
        "category": "ร้านอาหาร",
        "sub_category": "อาหารทั่วไป อาหารตามสั่ง อาหารจานเดียว"
      },
      "type": "Feature"
    },
    {
      "geometry": {
        "coordinates": [
          98.959132,
          18.741132
        ],
        "type": "Point"
      },
      "properties": {
        "name": "โบว์หมวกแฟชั่น",
        "category": "แฟชั่น",
        "sub_category": "ร้านขายเสื้อผ้า / เครื่องประดับ / สินค้าแฟชั่น"
      },
      "type": "Feature"
    },
    {
      "geometry": {
        "coordinates": [
          99.0119366,
          18.6967776
        ],
        "type": "Point"
      },
      "properties": {
        "name": "ร้านเตี๋ยวกะตุ๋น",
        "category": "ร้านอาหาร",
        "sub_category": "ก๋วยเตี๋ยว ก๋วยจั๊บ"
      },
      "type": "Feature"
    },
    {
      "geometry": {
        "coordinates": [
          99.031567,
          18.887244
        ],
        "type": "Point"
      },
      "properties": {
        "name": "ร้านหมู่บ้านลึกลับไดโนเสาร์",
        "category": "ซุปเปอร์มาร์เก็ต/ขายของใช้/ขายของชำ/มินิมาร์ท/ตลาดสด",
        "sub_category": "มินิมาร์ท / ร้านขายของชำ"
      },
      "type": "Feature"
    },
    {
      "geometry": {
        "coordinates": [
          98.946738,
          18.774528
        ],
        "type": "Point"
      },
      "properties": {
        "name": "LANDIN",
        "category": "ร้านอาหาร/เครื่องดื่ม",
        "sub_category": ""
      },
      "type": "Feature"
    },
    {
      "geometry": {
        "coordinates": [
          98.94561767578125,
          18.79329400294248
        ],
        "type": "Point"
      },
      "properties": {
        "name": "ห้องอาหารกาแล",
        "category": "ร้านอาหาร",
        "sub_category": "อาหารทั่วไป อาหารตามสั่ง อาหารจานเดียว"
      },
      "type": "Feature"
    },
    {
      "geometry": {
        "coordinates": [
          98.961027,
          18.736801
        ],
        "type": "Point"
      },
      "properties": {
        "name": "หยก มินิมาร์ท แม่เหียะ",
        "category": "ร้านค้าท้องถิ่น/ผลิตภัณฑ์ชุมชน/OTOP",
        "sub_category": ""
      },
      "type": "Feature"
    },
    {
      "geometry": {
        "coordinates": [
          98.968397,
          18.726707
        ],
        "type": "Point"
      },
      "properties": {
        "name": "เกี๊ยวซ่านายเลิศ",
        "category": "ร้านอาหาร",
        "sub_category": "ร้านอาหารญี่ปุ่น"
      },
      "type": "Feature"
    },
    {
      "geometry": {
        "coordinates": [
          98.98262,
          18.865642
        ],
        "type": "Point"
      },
      "properties": {
        "name": "สุภาณี วงศ์ศิริวิวัฒน์",
        "category": "ซุปเปอร์มาร์เก็ต/ขายของใช้/ขายของชำ/มินิมาร์ท/ตลาดสด",
        "sub_category": "ร้านขายของใช้ / อุปกรณ์"
      },
      "type": "Feature"
    },
    {
      "geometry": {
        "coordinates": [
          98.952713,
          18.826546
        ],
        "type": "Point"
      },
      "properties": {
        "name": "NITRO COLD BREW COFFEE",
        "category": "ร้านอาหาร",
        "sub_category": "ของหวาน ไอศกรีม เบเกอรี่ เครื่องดื่ม"
      },
      "type": "Feature"
    },
    {
      "geometry": {
        "coordinates": [
          99.029989,
          18.887621
        ],
        "type": "Point"
      },
      "properties": {
        "name": "พันชั่ง",
        "category": "ร้านค้าท้องถิ่น/ผลิตภัณฑ์ชุมชน/OTOP",
        "sub_category": ""
      },
      "type": "Feature"
    },
    {
      "geometry": {
        "coordinates": [
          98.991752,
          18.705904
        ],
        "type": "Point"
      },
      "properties": {
        "name": "ศรีพรรณ",
        "category": "ร้านค้าท้องถิ่น/ผลิตภัณฑ์ชุมชน/OTOP",
        "sub_category": ""
      },
      "type": "Feature"
    },
    {
      "geometry": {
        "coordinates": [
          99.122938,
          18.742942
        ],
        "type": "Point"
      },
      "properties": {
        "name": "อ้อยใจ ใจกันทะ",
        "category": "ซุปเปอร์มาร์เก็ต/ขายของใช้/ขายของชำ/มินิมาร์ท/ตลาดสด",
        "sub_category": "ตลาดสด"
      },
      "type": "Feature"
    },
    {
      "geometry": {
        "coordinates": [
          99.122949,
          18.742948
        ],
        "type": "Point"
      },
      "properties": {
        "name": "จอยอาหารพื้นเมือง",
        "category": "ร้านอาหาร",
        "sub_category": "อาหารเหนือ"
      },
      "type": "Feature"
    },
    {
      "geometry": {
        "coordinates": [
          99.122967,
          18.742939
        ],
        "type": "Point"
      },
      "properties": {
        "name": "เทียมตา โนชัย",
        "category": "ซุปเปอร์มาร์เก็ต/ขายของใช้/ขายของชำ/มินิมาร์ท/ตลาดสด",
        "sub_category": "ตลาดสด"
      },
      "type": "Feature"
    },
    {
      "geometry": {
        "coordinates": [
          99.123034,
          18.742957
        ],
        "type": "Point"
      },
      "properties": {
        "name": "ร้านขายหมูสุพรรณ",
        "category": "ร้านอาหาร",
        "sub_category": "อื่นๆ"
      },
      "type": "Feature"
    },
    {
      "geometry": {
        "coordinates": [
          99.044092,
          18.87126
        ],
        "type": "Point"
      },
      "properties": {
        "name": "บอยบาร์กุหลาบ",
        "category": "ซุปเปอร์มาร์เก็ต/ขายของใช้/ขายของชำ/มินิมาร์ท/ตลาดสด",
        "sub_category": "มินิมาร์ท / ร้านขายของชำ"
      },
      "type": "Feature"
    },
    {
      "geometry": {
        "coordinates": [
          99.123129,
          18.742954
        ],
        "type": "Point"
      },
      "properties": {
        "name": "ศุภวรรณ (หนู)",
        "category": "ร้านค้าธงฟ้า",
        "sub_category": ""
      },
      "type": "Feature"
    },
    {
      "geometry": {
        "coordinates": [
          98.964074,
          18.789869
        ],
        "type": "Point"
      },
      "properties": {
        "name": "ข้าวแกงเพชรบุรี หน้าสาธารณสุขเชียงใหม่",
        "category": "ร้านอาหาร",
        "sub_category": "อาหารทั่วไป อาหารตามสั่ง อาหารจานเดียว"
      },
      "type": "Feature"
    },
    {
      "geometry": {
        "coordinates": [
          98.970664,
          18.820651
        ],
        "type": "Point"
      },
      "properties": {
        "name": "กาแฟเขาทะเลชุมพร",
        "category": "ร้านอาหาร",
        "sub_category": "ของหวาน ไอศกรีม เบเกอรี่ เครื่องดื่ม"
      },
      "type": "Feature"
    },
    {
      "geometry": {
        "coordinates": [
          98.96627348777187,
          18.807637365295175
        ],
        "type": "Point"
      },
      "properties": {
        "name": "สเต็กเชฟเปี๊ยก",
        "category": "ร้านอาหาร",
        "sub_category": "อาหารทั่วไป อาหารตามสั่ง อาหารจานเดียว"
      },
      "type": "Feature"
    },
    {
      "geometry": {
        "coordinates": [
          98.981027,
          18.740291
        ],
        "type": "Point"
      },
      "properties": {
        "name": "ตุ๋ย สมคำแดง",
        "category": "ร้านอาหาร",
        "sub_category": "อาหารทั่วไป อาหารตามสั่ง อาหารจานเดียว"
      },
      "type": "Feature"
    },
    {
      "geometry": {
        "coordinates": [
          99.122961,
          18.742576
        ],
        "type": "Point"
      },
      "properties": {
        "name": "ร้านป้าศรีพรรณ",
        "category": "แฟชั่น",
        "sub_category": "ร้านขายเสื้อผ้า / เครื่องประดับ / สินค้าแฟชั่น"
      },
      "type": "Feature"
    },
    {
      "geometry": {
        "coordinates": [
          99.040054,
          18.707283
        ],
        "type": "Point"
      },
      "properties": {
        "name": "รักสารภี",
        "category": "ซุปเปอร์มาร์เก็ต/ขายของใช้/ขายของชำ/มินิมาร์ท/ตลาดสด",
        "sub_category": "มินิมาร์ท / ร้านขายของชำ"
      },
      "type": "Feature"
    },
    {
      "geometry": {
        "coordinates": [
          99.123495,
          18.743088
        ],
        "type": "Point"
      },
      "properties": {
        "name": "ยอดยิ่ง บุญโฉม",
        "category": "ซุปเปอร์มาร์เก็ต/ขายของใช้/ขายของชำ/มินิมาร์ท/ตลาดสด",
        "sub_category": "ตลาดสด"
      },
      "type": "Feature"
    },
    {
      "geometry": {
        "coordinates": [
          98.963838,
          18.789793
        ],
        "type": "Point"
      },
      "properties": {
        "name": "ร้านข้าวต้มย้ง",
        "category": "ร้านอาหาร",
        "sub_category": "ข้าวต้ม โจ๊ก เกาเหลา"
      },
      "type": "Feature"
    },
    {
      "geometry": {
        "coordinates": [
          99.1311,
          18.756
        ],
        "type": "Point"
      },
      "properties": {
        "name": "เจเจ คาเฟ่ เฮ้าส์",
        "category": "ร้านอาหาร",
        "sub_category": "ของหวาน ไอศกรีม เบเกอรี่ เครื่องดื่ม"
      },
      "type": "Feature"
    },
    {
      "geometry": {
        "coordinates": [
          98.963725,
          18.791051
        ],
        "type": "Point"
      },
      "properties": {
        "name": "สราวุฒิ สุภัทร์อกนิษฐ์",
        "category": "ร้านอาหาร",
        "sub_category": "อาหารทั่วไป อาหารตามสั่ง อาหารจานเดียว"
      },
      "type": "Feature"
    },
    {
      "geometry": {
        "coordinates": [
          98.965034,
          18.803712
        ],
        "type": "Point"
      },
      "properties": {
        "name": "อรทัย สุดเสมอใจ",
        "category": "ซุปเปอร์มาร์เก็ต/ขายของใช้/ขายของชำ/มินิมาร์ท/ตลาดสด",
        "sub_category": "ตลาดสด"
      },
      "type": "Feature"
    },
    {
      "geometry": {
        "coordinates": [
          99.100547,
          18.720775
        ],
        "type": "Point"
      },
      "properties": {
        "name": "ตุ้ยใจ๋",
        "category": "ร้านค้าธงฟ้า",
        "sub_category": ""
      },
      "type": "Feature"
    },
    {
      "geometry": {
        "coordinates": [
          99.011783,
          18.797836
        ],
        "type": "Point"
      },
      "properties": {
        "name": "สมศาสตร์ แก้วสืบ",
        "category": "ร้านอาหาร",
        "sub_category": "พิซซ่า ฟาสต์ฟู้ด จานด่วน"
      },
      "type": "Feature"
    },
    {
      "geometry": {
        "coordinates": [
          99.01215,
          18.799559
        ],
        "type": "Point"
      },
      "properties": {
        "name": "ไอแอม พิซซ่า",
        "category": "ร้านอาหาร",
        "sub_category": "พิซซ่า ฟาสต์ฟู้ด จานด่วน"
      },
      "type": "Feature"
    },
    {
      "geometry": {
        "coordinates": [
          99.01168,
          18.7979
        ],
        "type": "Point"
      },
      "properties": {
        "name": "วรรณกร กัลยาวงค์",
        "category": "ร้านอาหาร",
        "sub_category": "พิซซ่า ฟาสต์ฟู้ด จานด่วน"
      },
      "type": "Feature"
    },
    {
      "geometry": {
        "coordinates": [
          99.04622551445568,
          18.827282230837366
        ],
        "type": "Point"
      },
      "properties": {
        "name": "ร้านอาหารสวนหอมข้าวรำ",
        "category": "ร้านอาหาร",
        "sub_category": "อาหารทั่วไป อาหารตามสั่ง อาหารจานเดียว"
      },
      "type": "Feature"
    },
    {
      "geometry": {
        "coordinates": [
          99.012603,
          18.801539
        ],
        "type": "Point"
      },
      "properties": {
        "name": "ร้านโซ้ยเตี๋ยว",
        "category": "ร้านอาหาร",
        "sub_category": "ก๋วยเตี๋ยว ก๋วยจั๊บ"
      },
      "type": "Feature"
    },
    {
      "geometry": {
        "coordinates": [
          99.0810953,
          18.7630656
        ],
        "type": "Point"
      },
      "properties": {
        "name": "ก๋วยเตี๋ยวเรือยกซด",
        "category": "ร้านอาหาร",
        "sub_category": "ก๋วยเตี๋ยว ก๋วยจั๊บ"
      },
      "type": "Feature"
    },
    {
      "geometry": {
        "coordinates": [
          99.021853,
          18.762253
        ],
        "type": "Point"
      },
      "properties": {
        "name": "ที่ย่า ตำราแม่",
        "category": "ร้านอาหาร",
        "sub_category": "ก๋วยเตี๋ยว ก๋วยจั๊บ"
      },
      "type": "Feature"
    },
    {
      "geometry": {
        "coordinates": [
          99.02701559882154,
          18.75789409830448
        ],
        "type": "Point"
      },
      "properties": {
        "name": "ข้าวซอยลำลวนฟ้าฮ่าม(เซ็นทรัลเฟสเชียงใหม่)",
        "category": "ร้านอาหาร",
        "sub_category": "อาหารทั่วไป อาหารตามสั่ง อาหารจานเดียว"
      },
      "type": "Feature"
    },
    {
      "geometry": {
        "coordinates": [
          99.01327,
          18.773953
        ],
        "type": "Point"
      },
      "properties": {
        "name": "ศรินทร์ทิพย์ สิทธิชัย",
        "category": "ร้านอาหาร",
        "sub_category": "ของหวาน ไอศกรีม เบเกอรี่ เครื่องดื่ม"
      },
      "type": "Feature"
    },
    {
      "geometry": {
        "coordinates": [
          99.0101338,
          18.7850785
        ],
        "type": "Point"
      },
      "properties": {
        "name": "ก๋วยเตี๋ยวข้าวซอยน้องฟลุ๊ค",
        "category": "ร้านอาหาร",
        "sub_category": "ก๋วยเตี๋ยว ก๋วยจั๊บ"
      },
      "type": "Feature"
    },
    {
      "geometry": {
        "coordinates": [
          99.0392,
          18.751809
        ],
        "type": "Point"
      },
      "properties": {
        "name": "ป๊อปรุ่งเรืองการค้า",
        "category": "ซุปเปอร์มาร์เก็ต/ขายของใช้/ขายของชำ/มินิมาร์ท/ตลาดสด",
        "sub_category": "มินิมาร์ท / ร้านขายของชำ"
      },
      "type": "Feature"
    },
    {
      "geometry": {
        "coordinates": [
          99.01005508146616,
          18.785170210884342
        ],
        "type": "Point"
      },
      "properties": {
        "name": "ยูนิคอร์น เชียงใหม่",
        "category": "แฟชั่น",
        "sub_category": "ร้านขายเสื้อผ้า / เครื่องประดับ / สินค้าแฟชั่น"
      },
      "type": "Feature"
    },
    {
      "geometry": {
        "coordinates": [
          99.011157,
          18.799022
        ],
        "type": "Point"
      },
      "properties": {
        "name": "ข้าวมันไก่ดอนเมือง",
        "category": "ร้านอาหาร/เครื่องดื่ม",
        "sub_category": ""
      },
      "type": "Feature"
    },
    {
      "geometry": {
        "coordinates": [
          99.092195,
          18.784743
        ],
        "type": "Point"
      },
      "properties": {
        "name": "รัตติกาล",
        "category": "ร้านค้าท้องถิ่น/ผลิตภัณฑ์ชุมชน/OTOP",
        "sub_category": ""
      },
      "type": "Feature"
    },
    {
      "geometry": {
        "coordinates": [
          99.012885,
          18.774153
        ],
        "type": "Point"
      },
      "properties": {
        "name": "แม่อุ้ยอาหารพื้นเมือง",
        "category": "ร้านอาหาร",
        "sub_category": "อาหารทั่วไป อาหารตามสั่ง อาหารจานเดียว"
      },
      "type": "Feature"
    },
    {
      "geometry": {
        "coordinates": [
          99.010933,
          18.798975
        ],
        "type": "Point"
      },
      "properties": {
        "name": "เสาวลักษณ์ ก้อนแก้ว",
        "category": "ร้านอาหาร",
        "sub_category": "อาหารทั่วไป อาหารตามสั่ง อาหารจานเดียว"
      },
      "type": "Feature"
    },
    {
      "geometry": {
        "coordinates": [
          99.009624,
          18.785732
        ],
        "type": "Point"
      },
      "properties": {
        "name": "ข้าวสาร",
        "category": "ร้านค้าธงฟ้า",
        "sub_category": ""
      },
      "type": "Feature"
    },
    {
      "geometry": {
        "coordinates": [
          99.0106612443924,
          18.798844629594004
        ],
        "type": "Point"
      },
      "properties": {
        "name": "ร้านนมไทยเดนมาร์ค สาขาแก้วนวรัฐ",
        "category": "ร้านอาหาร",
        "sub_category": "ของหวาน ไอศกรีม เบเกอรี่ เครื่องดื่ม"
      },
      "type": "Feature"
    },
    {
      "geometry": {
        "coordinates": [
          98.979655,
          18.789518
        ],
        "type": "Point"
      },
      "properties": {
        "name": "ลาบดีขม",
        "category": "ร้านอาหาร",
        "sub_category": "อาหารทั่วไป อาหารตามสั่ง อาหารจานเดียว"
      },
      "type": "Feature"
    },
    {
      "geometry": {
        "coordinates": [
          98.98066073656082,
          18.777799016533503
        ],
        "type": "Point"
      },
      "properties": {
        "name": "บ้านศาลาคาเฟ่",
        "category": "ร้านอาหาร",
        "sub_category": "ของหวาน ไอศกรีม เบเกอรี่ เครื่องดื่ม"
      },
      "type": "Feature"
    },
    {
      "geometry": {
        "coordinates": [
          98.979706,
          18.785797
        ],
        "type": "Point"
      },
      "properties": {
        "name": "71 AFTERNOON",
        "category": "ร้านอาหาร",
        "sub_category": "ของหวาน ไอศกรีม เบเกอรี่ เครื่องดื่ม"
      },
      "type": "Feature"
    },
    {
      "geometry": {
        "coordinates": [
          98.98122843019004,
          18.803856753041845
        ],
        "type": "Point"
      },
      "properties": {
        "name": "ส้มตำเปรี้ยวปาก",
        "category": "ร้านอาหาร",
        "sub_category": "ร้านอาหารอีสาน"
      },
      "type": "Feature"
    },
    {
      "geometry": {
        "coordinates": [
          98.982299,
          18.807853
        ],
        "type": "Point"
      },
      "properties": {
        "name": "บรรเลงชัยชนะ",
        "category": "ร้านค้าธงฟ้า",
        "sub_category": ""
      },
      "type": "Feature"
    },
    {
      "geometry": {
        "coordinates": [
          98.9809184,
          18.802655400000003
        ],
        "type": "Point"
      },
      "properties": {
        "name": "แมนทีค​เกรสเฮาส์",
        "category": "โรงแรม",
        "sub_category": "ที่พักรายวัน"
      },
      "type": "Feature"
    },
    {
      "geometry": {
        "coordinates": [
          98.98117706179619,
          18.803917097331684
        ],
        "type": "Point"
      },
      "properties": {
        "name": "มาดามเหล่ย",
        "category": "ร้านอาหาร",
        "sub_category": "อาหารเวียดนาม"
      },
      "type": "Feature"
    },
    {
      "geometry": {
        "coordinates": [
          98.99439096450806,
          18.83082699209981
        ],
        "type": "Point"
      },
      "properties": {
        "name": "เฮือนสุนทรี",
        "category": "ร้านอาหาร",
        "sub_category": "อาหารเหนือ"
      },
      "type": "Feature"
    },
    {
      "geometry": {
        "coordinates": [
          98.980772,
          18.775431
        ],
        "type": "Point"
      },
      "properties": {
        "name": "ร้านกล้วยทอดพิจิตรทิพยเนตร",
        "category": "ร้านอาหาร",
        "sub_category": "อาหารว่าง ขนม ของกินเล่น"
      },
      "type": "Feature"
    },
    {
      "geometry": {
        "coordinates": [
          98.981202,
          18.773581
        ],
        "type": "Point"
      },
      "properties": {
        "name": "น้องดีไซน์",
        "category": "ร้านอาหาร",
        "sub_category": "ของหวาน ไอศกรีม เบเกอรี่ เครื่องดื่ม"
      },
      "type": "Feature"
    },
    {
      "geometry": {
        "coordinates": [
          98.981209,
          18.773529
        ],
        "type": "Point"
      },
      "properties": {
        "name": "น้ำเหนือ คอฟฟี่",
        "category": "ร้านอาหาร",
        "sub_category": "ของหวาน ไอศกรีม เบเกอรี่ เครื่องดื่ม"
      },
      "type": "Feature"
    },
    {
      "geometry": {
        "coordinates": [
          98.99432947768247,
          18.830841067005505
        ],
        "type": "Point"
      },
      "properties": {
        "name": "เฮือนสุนทรี",
        "category": "ร้านอาหาร",
        "sub_category": "อาหารเหนือ"
      },
      "type": "Feature"
    },
    {
      "geometry": {
        "coordinates": [
          98.9792625,
          18.7888224
        ],
        "type": "Point"
      },
      "properties": {
        "name": "ร้านโนเนม อาหารตามสั่ง",
        "category": "ร้านอาหาร",
        "sub_category": "อาหารทั่วไป อาหารตามสั่ง อาหารจานเดียว"
      },
      "type": "Feature"
    },
    {
      "geometry": {
        "coordinates": [
          98.98007918960398,
          18.799451926474642
        ],
        "type": "Point"
      },
      "properties": {
        "name": "ธนาโอชา",
        "category": "ร้านอาหาร",
        "sub_category": "ก๋วยเตี๋ยว ก๋วยจั๊บ"
      },
      "type": "Feature"
    },
    {
      "geometry": {
        "coordinates": [
          98.9801333,
          18.7999167
        ],
        "type": "Point"
      },
      "properties": {
        "name": "สมอล์ ทอล์ก​ คอฟฟี่",
        "category": "ร้านอาหาร",
        "sub_category": "ของหวาน ไอศกรีม เบเกอรี่ เครื่องดื่ม"
      },
      "type": "Feature"
    },
    {
      "geometry": {
        "coordinates": [
          98.9800319559428,
          18.79999266985677
        ],
        "type": "Point"
      },
      "properties": {
        "name": "เฮียหงีสันติธรรม",
        "category": "ร้านอาหาร",
        "sub_category": "อาหารทั่วไป อาหารตามสั่ง อาหารจานเดียว"
      },
      "type": "Feature"
    },
    {
      "geometry": {
        "coordinates": [
          99.110175,
          18.750162
        ],
        "type": "Point"
      },
      "properties": {
        "name": "เตี๋ยวเรืออยุธยา (ปากทางบ้านเหล่า)",
        "category": "ร้านอาหาร",
        "sub_category": "ก๋วยเตี๋ยว ก๋วยจั๊บ"
      },
      "type": "Feature"
    },
    {
      "geometry": {
        "coordinates": [
          98.979069,
          18.786468
        ],
        "type": "Point"
      },
      "properties": {
        "name": "วันเพ็ญขายของชำ",
        "category": "ซุปเปอร์มาร์เก็ต/ขายของใช้/ขายของชำ/มินิมาร์ท/ตลาดสด",
        "sub_category": "มินิมาร์ท / ร้านขายของชำ"
      },
      "type": "Feature"
    },
    {
      "geometry": {
        "coordinates": [
          98.983036,
          18.836683
        ],
        "type": "Point"
      },
      "properties": {
        "name": "ร้านทองดี",
        "category": "แฟชั่น",
        "sub_category": "ร้านขายเสื้อผ้า / เครื่องประดับ / สินค้าแฟชั่น"
      },
      "type": "Feature"
    },
    {
      "geometry": {
        "coordinates": [
          98.983025,
          18.836669
        ],
        "type": "Point"
      },
      "properties": {
        "name": "ร้านพรพินิต",
        "category": "ซุปเปอร์มาร์เก็ต/ขายของใช้/ขายของชำ/มินิมาร์ท/ตลาดสด",
        "sub_category": "ตลาดสด"
      },
      "type": "Feature"
    },
    {
      "geometry": {
        "coordinates": [
          98.967645,
          18.802282
        ],
        "type": "Point"
      },
      "properties": {
        "name": "ชีสซีฟรายสเนค",
        "category": "ร้านอาหาร",
        "sub_category": "พิซซ่า ฟาสต์ฟู้ด จานด่วน"
      },
      "type": "Feature"
    },
    {
      "geometry": {
        "coordinates": [
          98.966415,
          18.789499
        ],
        "type": "Point"
      },
      "properties": {
        "name": "กล้วยปิ้ง สุภัตรา",
        "category": "ร้านอาหาร/เครื่องดื่ม",
        "sub_category": ""
      },
      "type": "Feature"
    },
    {
      "geometry": {
        "coordinates": [
          98.96854519844055,
          18.807182921373464
        ],
        "type": "Point"
      },
      "properties": {
        "name": "ส้มตำคุณแม่เจ็ดยอด",
        "category": "ร้านอาหาร",
        "sub_category": "ร้านอาหารอีสาน"
      },
      "type": "Feature"
    },
    {
      "geometry": {
        "coordinates": [
          98.967053,
          18.799255
        ],
        "type": "Point"
      },
      "properties": {
        "name": "THE UNKNOWN FACTORY",
        "category": "แฟชั่น",
        "sub_category": "ร้านขายเสื้อผ้า / เครื่องประดับ / สินค้าแฟชั่น"
      },
      "type": "Feature"
    },
    {
      "geometry": {
        "coordinates": [
          98.96676592748427,
          18.796997736785926
        ],
        "type": "Point"
      },
      "properties": {
        "name": "ฟรุตเทอร์เดย์",
        "category": "ร้านอาหาร",
        "sub_category": "ของหวาน ไอศกรีม เบเกอรี่ เครื่องดื่ม"
      },
      "type": "Feature"
    },
    {
      "geometry": {
        "coordinates": [
          98.978982,
          18.747017
        ],
        "type": "Point"
      },
      "properties": {
        "name": "ห้อยขาคลองชล700ปี",
        "category": "ร้านอาหาร",
        "sub_category": "ก๋วยเตี๋ยว ก๋วยจั๊บ"
      },
      "type": "Feature"
    },
    {
      "geometry": {
        "coordinates": [
          98.9687417,
          18.808412
        ],
        "type": "Point"
      },
      "properties": {
        "name": "ตาบุญ บุฟเฟ่ต์",
        "category": "ร้านอาหาร",
        "sub_category": "บุฟเฟ่ต์"
      },
      "type": "Feature"
    },
    {
      "geometry": {
        "coordinates": [
          98.966683,
          18.797162
        ],
        "type": "Point"
      },
      "properties": {
        "name": "LEPOT",
        "category": "ร้านอาหาร",
        "sub_category": "อาหารเกาหลี"
      },
      "type": "Feature"
    },
    {
      "geometry": {
        "coordinates": [
          98.968394,
          18.807163
        ],
        "type": "Point"
      },
      "properties": {
        "name": "ฮ้านข้าวช่าง",
        "category": "ร้านอาหาร",
        "sub_category": "อาหารทั่วไป อาหารตามสั่ง อาหารจานเดียว"
      },
      "type": "Feature"
    },
    {
      "geometry": {
        "coordinates": [
          98.9662726,
          18.7864077
        ],
        "type": "Point"
      },
      "properties": {
        "name": "อาไก่แปด",
        "category": "ร้านอาหาร",
        "sub_category": "อาหารทั่วไป อาหารตามสั่ง อาหารจานเดียว"
      },
      "type": "Feature"
    },
    {
      "geometry": {
        "coordinates": [
          98.97259,
          18.758637
        ],
        "type": "Point"
      },
      "properties": {
        "name": "รัชนี พงษ์ทวี",
        "category": "ร้านอาหาร",
        "sub_category": "อาหารทั่วไป อาหารตามสั่ง อาหารจานเดียว"
      },
      "type": "Feature"
    },
    {
      "geometry": {
        "coordinates": [
          98.966173,
          18.789474
        ],
        "type": "Point"
      },
      "properties": {
        "name": "Espresso the darkdeep",
        "category": "ร้านอาหาร/เครื่องดื่ม",
        "sub_category": ""
      },
      "type": "Feature"
    },
    {
      "geometry": {
        "coordinates": [
          99.122961,
          18.746254
        ],
        "type": "Point"
      },
      "properties": {
        "name": "โรตีลุงวู๊ด",
        "category": "ร้านอาหาร",
        "sub_category": "อาหารว่าง ขนม ของกินเล่น"
      },
      "type": "Feature"
    },
    {
      "geometry": {
        "coordinates": [
          98.967314,
          18.802585
        ],
        "type": "Point"
      },
      "properties": {
        "name": "คอฟฟี่บาร์และข้าวไก่อบ",
        "category": "ร้านอาหาร",
        "sub_category": "อาหารทั่วไป อาหารตามสั่ง อาหารจานเดียว"
      },
      "type": "Feature"
    },
    {
      "geometry": {
        "coordinates": [
          99.098978,
          18.855667
        ],
        "type": "Point"
      },
      "properties": {
        "name": "สุคนธนิตย์ เครื่องเขียน",
        "category": "ร้านค้าธงฟ้า",
        "sub_category": ""
      },
      "type": "Feature"
    },
    {
      "geometry": {
        "coordinates": [
          98.96726846694946,
          18.802460309895547
        ],
        "type": "Point"
      },
      "properties": {
        "name": "เดอะดุ๊ค เมญ่า",
        "category": "ร้านอาหาร",
        "sub_category": "พิซซ่า ฟาสต์ฟู้ด จานด่วน"
      },
      "type": "Feature"
    },
    {
      "geometry": {
        "coordinates": [
          98.987567,
          18.789976
        ],
        "type": "Point"
      },
      "properties": {
        "name": "ณัชชาผ้าชาวเขา",
        "category": "แฟชั่น",
        "sub_category": "ร้านขายเสื้อผ้า / เครื่องประดับ / สินค้าแฟชั่น"
      },
      "type": "Feature"
    },
    {
      "geometry": {
        "coordinates": [
          98.988012,
          18.781954
        ],
        "type": "Point"
      },
      "properties": {
        "name": "ร้านแคบหมูช่อเอื้อง",
        "category": "ของฝาก/ของที่ระลึก",
        "sub_category": "ร้านขายของฝาก"
      },
      "type": "Feature"
    },
    {
      "geometry": {
        "coordinates": [
          98.989479,
          18.804047
        ],
        "type": "Point"
      },
      "properties": {
        "name": "ธนวรรณ สุโอชมา",
        "category": "ซุปเปอร์มาร์เก็ต/ขายของใช้/ขายของชำ/มินิมาร์ท/ตลาดสด",
        "sub_category": "มินิมาร์ท / ร้านขายของชำ"
      },
      "type": "Feature"
    },
    {
      "geometry": {
        "coordinates": [
          98.99044,
          18.807246
        ],
        "type": "Point"
      },
      "properties": {
        "name": "เกี๋ยงคำ ยานะ",
        "category": "ร้านอาหาร",
        "sub_category": "อาหารทั่วไป อาหารตามสั่ง อาหารจานเดียว"
      },
      "type": "Feature"
    },
    {
      "geometry": {
        "coordinates": [
          98.990129,
          18.806416
        ],
        "type": "Point"
      },
      "properties": {
        "name": "ขนมจีนน้ำพริกน้ำย้อย",
        "category": "ร้านอาหาร",
        "sub_category": "อาหารทั่วไป อาหารตามสั่ง อาหารจานเดียว"
      },
      "type": "Feature"
    },
    {
      "geometry": {
        "coordinates": [
          98.987645,
          18.784657
        ],
        "type": "Point"
      },
      "properties": {
        "name": "ร้านป้ากุ้ง",
        "category": "ร้านอาหาร",
        "sub_category": "อาหารทั่วไป อาหารตามสั่ง อาหารจานเดียว"
      },
      "type": "Feature"
    },
    {
      "geometry": {
        "coordinates": [
          98.987514,
          18.791817
        ],
        "type": "Point"
      },
      "properties": {
        "name": "จันจิลา ปวงชนะชัย",
        "category": "ร้านอาหาร",
        "sub_category": "อาหารทั่วไป อาหารตามสั่ง อาหารจานเดียว"
      },
      "type": "Feature"
    },
    {
      "geometry": {
        "coordinates": [
          98.988027,
          18.781094
        ],
        "type": "Point"
      },
      "properties": {
        "name": "น้ำผลไม้ปั่น FRUITS SHAKE",
        "category": "ร้านอาหาร",
        "sub_category": "อื่นๆ"
      },
      "type": "Feature"
    },
    {
      "geometry": {
        "coordinates": [
          99.00449752807617,
          18.74807472165886
        ],
        "type": "Point"
      },
      "properties": {
        "name": "หลองข้าวลำ",
        "category": "ร้านอาหาร",
        "sub_category": "อาหารเหนือ"
      },
      "type": "Feature"
    },
    {
      "geometry": {
        "coordinates": [
          99.075555,
          18.844879
        ],
        "type": "Point"
      },
      "properties": {
        "name": "ร้านศศิกาญจน์",
        "category": "ร้านอาหาร",
        "sub_category": "ก๋วยเตี๋ยว ก๋วยจั๊บ"
      },
      "type": "Feature"
    },
    {
      "geometry": {
        "coordinates": [
          98.987919,
          18.781303
        ],
        "type": "Point"
      },
      "properties": {
        "name": "กิติยา ผิวอ่อนดี",
        "category": "ร้านอาหาร",
        "sub_category": "อาหารทั่วไป อาหารตามสั่ง อาหารจานเดียว"
      },
      "type": "Feature"
    },
    {
      "geometry": {
        "coordinates": [
          99.03023972262135,
          18.732136841829703
        ],
        "type": "Point"
      },
      "properties": {
        "name": "ทานชาบู",
        "category": "ร้านอาหาร",
        "sub_category": "อาหารทั่วไป อาหารตามสั่ง อาหารจานเดียว"
      },
      "type": "Feature"
    },
    {
      "geometry": {
        "coordinates": [
          98.98731,
          18.789778
        ],
        "type": "Point"
      },
      "properties": {
        "name": "ชัญรวิ ยิ่งเจริญ",
        "category": "ของฝาก/ของที่ระลึก",
        "sub_category": "ร้านขายของฝาก"
      },
      "type": "Feature"
    },
    {
      "geometry": {
        "coordinates": [
          98.987778,
          18.78157
        ],
        "type": "Point"
      },
      "properties": {
        "name": "ลานนาเภสัท",
        "category": "ซุปเปอร์มาร์เก็ต/ขายของใช้/ขายของชำ/มินิมาร์ท/ตลาดสด",
        "sub_category": "ร้านขายของใช้ / อุปกรณ์"
      },
      "type": "Feature"
    },
    {
      "geometry": {
        "coordinates": [
          98.987793,
          18.781439
        ],
        "type": "Point"
      },
      "properties": {
        "name": "ชูชิ ประตูเชียงใหม่ สาขา1",
        "category": "ร้านอาหาร",
        "sub_category": "ร้านอาหารญี่ปุ่น"
      },
      "type": "Feature"
    },
    {
      "geometry": {
        "coordinates": [
          98.991919,
          18.811939
        ],
        "type": "Point"
      },
      "properties": {
        "name": "สมพงษ์ เรียนชิน",
        "category": "ร้านอาหาร",
        "sub_category": "ปิ้งย่าง หมูกะทะ"
      },
      "type": "Feature"
    },
    {
      "geometry": {
        "coordinates": [
          98.987145,
          18.78818
        ],
        "type": "Point"
      },
      "properties": {
        "name": "ร้านน้ำลำไย ณัฐชยา",
        "category": "ร้านอาหาร/เครื่องดื่ม",
        "sub_category": ""
      },
      "type": "Feature"
    },
    {
      "geometry": {
        "coordinates": [
          98.98749,
          18.781496
        ],
        "type": "Point"
      },
      "properties": {
        "name": "ป้ากุ้งขนมจีน",
        "category": "ร้านอาหาร",
        "sub_category": "อาหารเหนือ"
      },
      "type": "Feature"
    },
    {
      "geometry": {
        "coordinates": [
          99.01785757052886,
          18.871185598569436
        ],
        "type": "Point"
      },
      "properties": {
        "name": "ก๋วยเตี๋ยวเป็ดน้ำแดง",
        "category": "ร้านอาหาร",
        "sub_category": "อาหารทั่วไป อาหารตามสั่ง อาหารจานเดียว"
      },
      "type": "Feature"
    },
    {
      "geometry": {
        "coordinates": [
          98.960622,
          18.808709
        ],
        "type": "Point"
      },
      "properties": {
        "name": "อนงค์ อาหารตามสั่ง",
        "category": "ร้านอาหาร/เครื่องดื่ม",
        "sub_category": ""
      },
      "type": "Feature"
    },
    {
      "geometry": {
        "coordinates": [
          98.960145,
          18.806731
        ],
        "type": "Point"
      },
      "properties": {
        "name": "อำไพ กันทา",
        "category": "ร้านอาหาร",
        "sub_category": "ร้านขายผลไม้ / ร้านขายผัก"
      },
      "type": "Feature"
    },
    {
      "geometry": {
        "coordinates": [
          98.95931303501129,
          18.802968123941337
        ],
        "type": "Point"
      },
      "properties": {
        "name": "ครัวลุงต้อย",
        "category": "ร้านอาหาร",
        "sub_category": "อาหารทั่วไป อาหารตามสั่ง อาหารจานเดียว"
      },
      "type": "Feature"
    },
    {
      "geometry": {
        "coordinates": [
          98.960171,
          18.807389
        ],
        "type": "Point"
      },
      "properties": {
        "name": "นิดหน่อยชามุก",
        "category": "ร้านอาหาร",
        "sub_category": "ของหวาน ไอศกรีม เบเกอรี่ เครื่องดื่ม"
      },
      "type": "Feature"
    },
    {
      "geometry": {
        "coordinates": [
          98.960024,
          18.806864
        ],
        "type": "Point"
      },
      "properties": {
        "name": "ร้านพี่นาง",
        "category": "ซุปเปอร์มาร์เก็ต/ขายของใช้/ขายของชำ/มินิมาร์ท/ตลาดสด",
        "sub_category": "ตลาดสด"
      },
      "type": "Feature"
    },
    {
      "geometry": {
        "coordinates": [
          98.959993,
          18.806807
        ],
        "type": "Point"
      },
      "properties": {
        "name": "นั่งนัวช่างเคี่ยน",
        "category": "ร้านอาหาร",
        "sub_category": "อาหารทั่วไป อาหารตามสั่ง อาหารจานเดียว"
      },
      "type": "Feature"
    },
    {
      "geometry": {
        "coordinates": [
          98.959982,
          18.806793
        ],
        "type": "Point"
      },
      "properties": {
        "name": "ซอบู แซ่ก่อง",
        "category": "ซุปเปอร์มาร์เก็ต/ขายของใช้/ขายของชำ/มินิมาร์ท/ตลาดสด",
        "sub_category": "ร้านขายของใช้ / อุปกรณ์"
      },
      "type": "Feature"
    },
    {
      "geometry": {
        "coordinates": [
          98.959869,
          18.806302
        ],
        "type": "Point"
      },
      "properties": {
        "name": "ชุติมา ชัยเดช",
        "category": "ร้านอาหาร",
        "sub_category": "อาหารทั่วไป อาหารตามสั่ง อาหารจานเดียว"
      },
      "type": "Feature"
    },
    {
      "geometry": {
        "coordinates": [
          98.960055,
          18.807215
        ],
        "type": "Point"
      },
      "properties": {
        "name": "ร้านขนมไข่นกกล้วยทอด",
        "category": "ร้านอาหาร",
        "sub_category": "อาหารว่าง ขนม ของกินเล่น"
      },
      "type": "Feature"
    },
    {
      "geometry": {
        "coordinates": [
          98.958141,
          18.792282
        ],
        "type": "Point"
      },
      "properties": {
        "name": "ณิชชารีย์ ปิ่นทอง",
        "category": "ร้านอาหาร",
        "sub_category": "อาหารทั่วไป อาหารตามสั่ง อาหารจานเดียว"
      },
      "type": "Feature"
    },
    {
      "geometry": {
        "coordinates": [
          98.960014,
          18.807049
        ],
        "type": "Point"
      },
      "properties": {
        "name": "ร้านป้าต่าย",
        "category": "ร้านอาหาร",
        "sub_category": "อาหารว่าง ขนม ของกินเล่น"
      },
      "type": "Feature"
    },
    {
      "geometry": {
        "coordinates": [
          98.958207,
          18.793896
        ],
        "type": "Point"
      },
      "properties": {
        "name": "UNCLE COFFEE FRESH",
        "category": "ร้านอาหาร",
        "sub_category": "ของหวาน ไอศกรีม เบเกอรี่ เครื่องดื่ม"
      },
      "type": "Feature"
    },
    {
      "geometry": {
        "coordinates": [
          98.959722,
          18.805759
        ],
        "type": "Point"
      },
      "properties": {
        "name": "ณภัค อธิณัทนวโชค",
        "category": "ร้านอาหาร",
        "sub_category": "ก๋วยเตี๋ยว ก๋วยจั๊บ"
      },
      "type": "Feature"
    },
    {
      "geometry": {
        "coordinates": [
          99.129269,
          18.836989
        ],
        "type": "Point"
      },
      "properties": {
        "name": "ร้านข้าวมันไก่ป่าป้อง",
        "category": "ร้านอาหาร",
        "sub_category": "อาหารทั่วไป อาหารตามสั่ง อาหารจานเดียว"
      },
      "type": "Feature"
    },
    {
      "geometry": {
        "coordinates": [
          98.95969,
          18.805632
        ],
        "type": "Point"
      },
      "properties": {
        "name": "จรุงใจ ผุยคำภา",
        "category": "ร้านอาหาร",
        "sub_category": "ของหวาน ไอศกรีม เบเกอรี่ เครื่องดื่ม"
      },
      "type": "Feature"
    },
    {
      "geometry": {
        "coordinates": [
          98.959656,
          18.80567
        ],
        "type": "Point"
      },
      "properties": {
        "name": "วิโรจน์ สุทธิพัฒนสมบุญ",
        "category": "ร้านอาหาร",
        "sub_category": "ปิ้งย่าง หมูกะทะ"
      },
      "type": "Feature"
    },
    {
      "geometry": {
        "coordinates": [
          98.96490007638931,
          18.82275390470061
        ],
        "type": "Point"
      },
      "properties": {
        "name": "ชาบู ชาบู นางใน เชียงใหม่",
        "category": "ร้านอาหาร",
        "sub_category": "ชาบู สุกี้ยากี้ หม้อไฟ"
      },
      "type": "Feature"
    },
    {
      "geometry": {
        "coordinates": [
          99.034373,
          18.835999
        ],
        "type": "Point"
      },
      "properties": {
        "name": "A&B ปลาเผาผักสด ข้าวห่อใบตอง",
        "category": "ร้านอาหาร",
        "sub_category": "อาหารทั่วไป อาหารตามสั่ง อาหารจานเดียว"
      },
      "type": "Feature"
    },
    {
      "geometry": {
        "coordinates": [
          98.99941,
          18.781942
        ],
        "type": "Point"
      },
      "properties": {
        "name": "ร้านกาแฟสดดอยตุงพันธุ์ทิพย์เชียงใหม่",
        "category": "ร้านอาหาร",
        "sub_category": "ของหวาน ไอศกรีม เบเกอรี่ เครื่องดื่ม"
      },
      "type": "Feature"
    },
    {
      "geometry": {
        "coordinates": [
          99.077371,
          18.831973
        ],
        "type": "Point"
      },
      "properties": {
        "name": "ร้านอานนท์",
        "category": "ร้านค้าธงฟ้า",
        "sub_category": ""
      },
      "type": "Feature"
    },
    {
      "geometry": {
        "coordinates": [
          99.00038076940862,
          18.777169678108898
        ],
        "type": "Point"
      },
      "properties": {
        "name": "มิราเคิลคอฟฟี่แอทพรอมเมนาดา",
        "category": "ร้านอาหาร",
        "sub_category": "ของหวาน ไอศกรีม เบเกอรี่ เครื่องดื่ม"
      },
      "type": "Feature"
    },
    {
      "geometry": {
        "coordinates": [
          98.9988268,
          18.7873016
        ],
        "type": "Point"
      },
      "properties": {
        "name": "ร้านนายคิชเช่น",
        "category": "ร้านอาหาร",
        "sub_category": "อาหารทั่วไป อาหารตามสั่ง อาหารจานเดียว"
      },
      "type": "Feature"
    },
    {
      "geometry": {
        "coordinates": [
          98.998812,
          18.790699
        ],
        "type": "Point"
      },
      "properties": {
        "name": "เดือนกาดหลวง",
        "category": "ร้านค้าทั่วไป",
        "sub_category": ""
      },
      "type": "Feature"
    },
    {
      "geometry": {
        "coordinates": [
          99.001192,
          18.774314
        ],
        "type": "Point"
      },
      "properties": {
        "name": "จอห์นนพดล วศินสุนทร",
        "category": "ร้านอาหาร",
        "sub_category": "ของหวาน ไอศกรีม เบเกอรี่ เครื่องดื่ม"
      },
      "type": "Feature"
    },
    {
      "geometry": {
        "coordinates": [
          99.005605,
          18.764669
        ],
        "type": "Point"
      },
      "properties": {
        "name": "อีสานแซ่บ หนองหอย",
        "category": "ร้านอาหาร",
        "sub_category": "ร้านอาหารอีสาน"
      },
      "type": "Feature"
    },
    {
      "geometry": {
        "coordinates": [
          99.005657,
          18.764529
        ],
        "type": "Point"
      },
      "properties": {
        "name": "ข้าวเหนียวมะม่วงอยุธยา หนองหอย",
        "category": "ร้านอาหาร",
        "sub_category": "ของหวาน ไอศกรีม เบเกอรี่ เครื่องดื่ม"
      },
      "type": "Feature"
    },
    {
      "geometry": {
        "coordinates": [
          98.998839,
          18.785696
        ],
        "type": "Point"
      },
      "properties": {
        "name": "แม่น้อยข้าวราดแกง",
        "category": "ร้านอาหาร",
        "sub_category": "อาหารทั่วไป อาหารตามสั่ง อาหารจานเดียว"
      },
      "type": "Feature"
    },
    {
      "geometry": {
        "coordinates": [
          98.9987116,
          18.7902172
        ],
        "type": "Point"
      },
      "properties": {
        "name": "วังทองการค้า",
        "category": "ร้านอาหาร",
        "sub_category": "อาหารทั่วไป อาหารตามสั่ง อาหารจานเดียว"
      },
      "type": "Feature"
    },
    {
      "geometry": {
        "coordinates": [
          98.998706,
          18.790026
        ],
        "type": "Point"
      },
      "properties": {
        "name": "ร้านเสริมสวยต้อย",
        "category": "ร้านค้าทั่วไป",
        "sub_category": ""
      },
      "type": "Feature"
    },
    {
      "geometry": {
        "coordinates": [
          98.999716,
          18.779401
        ],
        "type": "Point"
      },
      "properties": {
        "name": "รสเข้ม กาแฟโบราณ",
        "category": "ร้านอาหาร/เครื่องดื่ม",
        "sub_category": ""
      },
      "type": "Feature"
    },
    {
      "geometry": {
        "coordinates": [
          98.998907,
          18.793842
        ],
        "type": "Point"
      },
      "properties": {
        "name": "จิระภัณฑ์",
        "category": "ซุปเปอร์มาร์เก็ต/ขายของใช้/ขายของชำ/มินิมาร์ท/ตลาดสด",
        "sub_category": "ร้านขายของใช้ / อุปกรณ์"
      },
      "type": "Feature"
    },
    {
      "geometry": {
        "coordinates": [
          99.00539875030518,
          18.81355061986029
        ],
        "type": "Point"
      },
      "properties": {
        "name": "เซียะก๋วยเตี๋ยวปลา",
        "category": "ร้านอาหาร",
        "sub_category": "ก๋วยเตี๋ยว ก๋วยจั๊บ"
      },
      "type": "Feature"
    },
    {
      "geometry": {
        "coordinates": [
          99.005928,
          18.763891
        ],
        "type": "Point"
      },
      "properties": {
        "name": "ข้าวมันไก่ลายคราม",
        "category": "ร้านอาหาร",
        "sub_category": "อาหารทั่วไป อาหารตามสั่ง อาหารจานเดียว"
      },
      "type": "Feature"
    },
    {
      "geometry": {
        "coordinates": [
          99.013815,
          18.824174
        ],
        "type": "Point"
      },
      "properties": {
        "name": "มิกุชา",
        "category": "ร้านอาหาร",
        "sub_category": "ของหวาน ไอศกรีม เบเกอรี่ เครื่องดื่ม"
      },
      "type": "Feature"
    },
    {
      "geometry": {
        "coordinates": [
          98.9995998,
          18.7794395
        ],
        "type": "Point"
      },
      "properties": {
        "name": "ก๋วยเตี๋ยวเรือตี๋หมวย",
        "category": "ร้านอาหาร",
        "sub_category": "ก๋วยเตี๋ยว ก๋วยจั๊บ"
      },
      "type": "Feature"
    },